店コード	店名称（漢字）	郵便番号	住所	latitude	longitude
00014	浅草店	1110033	東京都台東区花川戸1-10-2	35.71391	139.799429
00015	佐野東店	3270831	栃木県佐野市浅沼町814	36.309327	139.588259
00018	桜山店	4660044	愛知県名古屋市昭和区桜山町4-71-5	35.142571	136.933234
00029	富士山駅前店	4030005	山梨県富士吉田市上吉田2-5-1富士急ﾀｰﾐﾅﾙﾋﾞﾙ	35.478459	138.797164
00036	高崎高関店	3700043	群馬県高崎市高関町429-2	36.326717	139.028793
00076	福山光南店	7200814	広島県福山市光南町3-7-46	34.478723	133.367119
00080	黒崎店	8060021	福岡県北九州市八幡西区黒崎4-1-5南大門ﾋﾞﾙ1F	33.864574	130.765377
00108	前橋南店	3710801	群馬県前橋市文京町2-28-17	36.379191	139.084932
00114	銚子店	2880048	千葉県銚子市双葉町6-11	35.733134	140.829723
00119	足利山川店	3260021	栃木県足利市山川町676-1	36.323427	139.479775
00122	平間店	2110013	神奈川県川崎市中原区上平間1955	35.55896	139.676384
00133	山崎咲ランド店	6712545	兵庫県宍粟市山崎町中井10	34.998473	134.540036
00139	三田川店	8420031	佐賀県神埼郡吉野ヶ里町大字吉田779-1	33.332687	130.405109
00149	尾道店	7220014	広島県尾道市新浜1-8-27	34.401186	133.179895
00153	出雲ドーム店	6930058	島根県出雲市矢野町999	35.380524	132.735705
00160	高岡野村店	9330014	富山県高岡市野村365ｻﾝｴｲﾊｲﾂ1F	36.747634	137.041076
00166	北見店	0900044	北海道北見市北4条西3丁目1-2伊谷ﾋﾞﾙ1F	43.803734	143.891138
00176	宮崎ピースタウン店	8800035	宮崎県宮崎市下北方町平田903-3	31.94538	131.419132
00177	鴨宮店	2500874	神奈川県小田原市鴨宮635-1	35.278765	139.17732
00199	松任店	9240865	石川県白山市倉光10-166	36.514017	136.568179
00201	萱島店	5720827	大阪府寝屋川市萱島本町18-2	34.746786	135.613367
00202	鳥取安長店	6800913	鳥取県鳥取市安長394	35.510415	134.207216
00204	永福町店	1680063	東京都杉並区和泉3-13-19	35.676204	139.6523
00211	小牧店	4850048	愛知県小牧市間々本町294	35.295652	136.909208
00235	柳ヶ瀬中央店	5008876	岐阜県岐阜市日ﾉ出町2-19	35.418965	136.75653
00284	池下店	4640841	愛知県名古屋市千種区覚王山通7-11ﾁｶｼﾝ池下	35.166978	136.947873
00290	六本松店	8100044	福岡県福岡市中央区六本松2-14-18九大教養部前	33.578167	130.379425
00295	倉吉バイパス店	6820021	鳥取県倉吉市上井359-1	35.454167	133.843657
00322	富士エンチョー店	4170058	静岡県富士市永田北町4-5	35.164082	138.676737
00329	高崎並榎店	3700802	群馬県高崎市並榎町49-1	36.336351	138.995175
00330	那覇国場店	9020075	沖縄県那覇市字国場977-1	26.198017	127.698292
00335	ときわ台店	1740071	東京都板橋区常盤台2-5-23常盤台ﾋﾞﾙ1F	35.762039	139.686094
00336	サントムーン柿田川店	4110902	静岡県駿東郡清水町玉川61-2	35.108209	138.90515
00345	中間店	8090019	福岡県中間市東中間1-2-10	33.819767	130.718241
00364	大井松田店	2580019	神奈川県足柄上郡大井町金子95-9	35.333979	139.152447
00370	北前橋店	3710037	群馬県前橋市上小出町2-40-12	36.414871	139.058369
00375	相原店	4580033	愛知県名古屋市緑区相原郷2-1501	35.080066	136.968553
00384	群馬大泉店	3700517	群馬県邑楽郡大泉町西小泉4-2-10	36.256873	139.410606
00400	那覇金城店	9010154	沖縄県那覇市赤嶺1-1-4	26.193639	127.660196
00403	要町店	1710043	東京都豊島区要町3-12-1	35.736306	139.692312
00418	旭三郷店	4880011	愛知県尾張旭市東栄町1-7-16	35.219378	137.053023
00431	南浦和店	3360017	埼玉県さいたま市南区南浦和2-40-1	35.847763	139.672983
00435	三重朝日店	5108102	三重県三重郡朝日町大字小向347-4	35.038798	136.663495
00440	伊勢原店	2591132	神奈川県伊勢原市桜台1-1-43小田急ﾏﾙｼｪ伊勢原	35.392602	139.317461
00446	山形桜田店	9902321	山形県山形市桜田西2-1-7	38.219989	140.315404
00484	厚木愛甲店	2430035	神奈川県厚木市愛甲2-10-6	35.422324	139.343545
00487	むつ店	0350071	青森県むつ市小川町1-8-28	41.297739	141.206416
00497	館林店	3740016	群馬県館林市松原1-21-18	36.237125	139.542429
00502	小樽静屋通店	0470032	北海道小樽市稲穂2-16-3	43.199372	140.995122
00525	梶ヶ谷店	2130013	神奈川県川崎市高津区末長1-8-20	35.590381	139.615656
00527	札幌麻生店	0010040	北海道札幌市北区北40条西4丁目2-10	43.108792	141.337191
00533	田主丸店	8391202	福岡県久留米市田主丸町鷹取458-1	33.343977	130.727485
00537	苫小牧店	0530021	北海道苫小牧市若草町5-3-5	42.639345	141.605373
00539	服部店	5610853	大阪府豊中市服部南町1-3-6	34.760135	135.477115
00540	会津喜多方店	9660057	福島県喜多方市字井戸尻4129-1	37.6506497	139.8814137
00541	尾崎店	5990202	大阪府阪南市下出720-5	34.360179	135.246813
00554	早稲田店	1620045	東京都新宿区馬場下町10	35.706232	139.719513
00562	栄五丁目店	4600008	愛知県名古屋市中区栄5-1-5	35.166558	136.905118
00565	大原店	2980003	千葉県いすみ市深堀1620-3	35.257799	140.391382
00602	半田店	4750903	愛知県半田市出口町1-153	34.903506	136.921638
00610	静岡国一店	4228065	静岡県静岡市駿河区宮本町1-8	34.96501	138.383455
00620	福山春日店	7210907	広島県福山市春日町5-1-7	34.508912	133.411672
00624	札幌北４８条店	0070849	北海道札幌市東区北49条東8-2-1	43.120971	141.356259
00626	直江津店	9420004	新潟県上越市西本町3-9-3	37.171319	138.238711
00652	松本横田店	3900803	長野県松本市元町2-1-16	36.244054	137.982077
00666	ルート１７６池田店	5630024	大阪府池田市鉢塚2-13-8	34.816744	135.438023
00669	天童店	9940021	山形県天童市大字山元2588	38.361013	140.389171
00674	ヨコハマ片倉町店	2210865	神奈川県横浜市神奈川区片倉1-24-8	35.489623	139.605491
00683	西宮北インター店	6511412	兵庫県西宮市山口町下山口2-1-4	34.833484	135.239956
00688	三ヶ根店	4440124	愛知県額田郡幸田町大字深溝字中池田53	34.834917	137.177478
00713	旭店	2892504	千葉県旭市ﾆ233-1	35.715437	140.638755
00723	東大宮店	3370051	埼玉県さいたま市見沼区東大宮6-158-1	35.9479	139.639976
00731	本郷台店	2470005	神奈川県横浜市栄区桂町274-23	35.363293	139.549766
00745	千葉大学前店	2630023	千葉県千葉市稲毛区緑町1-26-6	35.624439	140.097588
00746	豊里店	5330013	大阪府大阪市東淀川区豊里7-34-7	34.740361	135.540562
00759	足利南店	3260823	栃木県足利市朝倉町3-8-1	36.318875	139.445918
00761	一宮妙興寺店	4910921	愛知県一宮市妙興寺2-2-15	35.286857	136.801756
00765	大分別府店	8740919	大分県別府市石垣東10-6-6	33.297299	131.497227
00770	甚目寺店	4901114	愛知県あま市下萱津九反田52	35.180606	136.838137
00780	西尾店	4450811	愛知県西尾市道光寺町天王下11-33	34.872325	137.05908
00802	吹田北口店	5640082	大阪府吹田市片山町1-3-5	34.767983	135.523248
00804	沖縄ひらら店	9060012	沖縄県宮古島市平良字西里1000-12	24.796466	125.291694
00806	苫小牧バイパス店	0530833	北海道苫小牧市日新町2-1-35	42.630148	141.538336
00813	馬橋駅前店	2710046	千葉県松戸市西馬橋蔵元町8篠崎西馬橋ﾏﾝｼｮﾝ	35.813394	139.914511
00824	山形西バイパス店	9900832	山形県山形市城西町5-35-62	38.25803	140.3204
00833	武蔵小山店	1420063	東京都品川区荏原4-1-3	35.615495	139.706703
00843	中野富士見町店	1640013	東京都中野区弥生町2-52-5	35.688516	139.670957
00852	大垣東店	5030804	岐阜県大垣市中ﾉ江2-37-4	35.365729	136.643381
00858	豊川インター店	4420808	愛知県豊川市豊が丘町73	34.837189	137.408636
00864	桐生広沢店	3760013	群馬県桐生市広沢町4-2459	36.379027	139.338523
00871	帯広白樺通り店	0802469	北海道帯広市西19条南3-4-12	42.905634	143.160671
00881	三原店	7230014	広島県三原市城町2-13-30	34.398326	133.085189
00893	佐渡佐和田店	9521307	新潟県佐渡市東大通828-1	38.010256	138.338598
00899	東川口駅前店	3330811	埼玉県川口市戸塚2-22-1	35.867717	139.747449
00904	福岡那珂川店	8111251	福岡県那珂川市松木1-69	33.507898	130.436174
00912	根室店	0870006	北海道根室市曙町3-5ｺｰﾌﾟ内	43.3320231	145.5933976
00914	本牧店	2310804	神奈川県横浜市中区本牧宮原1-39	35.428509	139.665009
00917	松山フライブルク通り店	7900051	愛媛県松山市生石町153	33.833195	132.741865
00920	横浜医大前店	2320024	神奈川県横浜市南区浦舟町2-23-6	35.434421	139.625971
00926	佐世保中里店	8580904	長崎県佐世保市中里町142-10	33.203942	129.6842
00927	鶴見本町通り店	2300048	神奈川県横浜市鶴見区本町通3-165-6	35.501705	139.683143
00928	町田忠生店	1940035	東京都町田市忠生3-1-12	35.577671	139.418373
00936	武蔵小杉店	2110068	神奈川県川崎市中原区小杉御殿町2-35	35.581873	139.652524
00938	平塚パールロード店	2540043	神奈川県平塚市紅谷町10-5	35.327739	139.347888
00942	高島平店	1750082	東京都板橋区高島平2-33-1-203	35.788785	139.657957
00963	大和郡山店	6391115	奈良県大和郡山市横田町85-1	34.618626	135.803991
00964	平城ニュータウン店	6310804	奈良県奈良市神功5-1-1	34.721451	135.777443
00973	前橋片貝店	3710013	群馬県前橋市西片貝町1-228-1	36.389985	139.094135
00974	ヨコハマ反町店	2210841	神奈川県横浜市神奈川区松本町2-13-7	35.476336	139.620774
00976	丸亀店	7630066	香川県丸亀市天満町1-12-18	34.284046	133.778854
00978	寒河江店	9910003	山形県寒河江市大字西根字上川原225ｰ1	38.384607	140.28115
00981	西宮北口店	6620832	兵庫県西宮市甲風園1-8-1	34.750702	135.356095
00994	宝塚逆瀬川店	6650033	兵庫県宝塚市伊孑志1-6-34馬殿ﾋﾞﾙ1F	34.800236	135.35133
01010	上尾市民体育館前店	3620045	埼玉県上尾市向山4-3-25	35.960899	139.579763
01021	豊橋曙店	4418151	愛知県豊橋市曙町字南松原12	34.729273	137.395524
01029	西太田店	3730034	群馬県太田市藤阿久町749-5	36.28774	139.35762
01035	別府海岸通り店	8740945	大分県別府市浜町3-25	33.27308	131.508307
01048	志村坂上店	1740051	東京都板橋区小豆沢2-17-6	35.777645	139.69881
01054	折尾産医大前店	8070874	福岡県北九州市八幡西区大浦1-11-1	33.871712	130.712697
01057	久留米合川バイパス店	8390816	福岡県久留米市山川野口町16-7	33.319502	130.565086
01058	松橋店	8690502	熊本県宇城市松橋町松橋896-1	32.652839	130.675711
01075	宮崎ブルーアイランド店	8892151	宮崎県宮崎市大字熊野315	31.830319	131.436464
01077	真岡店	3214361	栃木県真岡市並木町1-14-3	36.443202	139.999433
01103	玉川上水店	2070022	東京都東大和市桜ｹ丘3-44桜ｹ丘団地内2号棟105号	35.734525	139.422721
01104	福岡八女店	8340004	福岡県八女市納楚760-4	33.217778	130.568542
01105	船堀駅前店	1340091	東京都江戸川区船堀3-5-7	35.681695	139.866073
01109	群馬町店	3703522	群馬県高崎市菅谷町1243-14	36.379796	139.016201
01110	萩店	7580025	山口県萩市大字土原124-1	34.412184	131.407428
01112	八尾南店	5810038	大阪府八尾市若林町1-87	34.594661	135.582428
01117	佐賀大和バイパス店	8490917	佐賀県佐賀市高木瀬町大字長瀬1224-1	33.293067	130.287721
01127	米沢金池店	9920011	山形県米沢市中田町405	37.940257	140.123579
01130	岡崎稲熊店	4440071	愛知県岡崎市稲熊町字2-56-1	34.965783	137.178185
01147	大分三重店	8797111	大分県豊後大野市三重町赤嶺1975	32.987988	131.592465
01149	柳川店	8320806	福岡県柳川市三橋町柳河585-1	33.176051	130.410985
01170	太田高林店	3730829	群馬県太田市高林北町945-7	36.265236	139.36718
01175	沼津五月町店	4100044	静岡県沼津市五月町4-20	35.114115	138.86519
01203	広島十日市店	7300851	広島県広島市中区榎町3-1	34.396647	132.444974
01204	下妻店	3040812	茨城県下妻市田下127-7	36.164649	139.965284
01206	久留米大善寺店	8300073	福岡県久留米市大善寺町宮本342-88	33.27921	130.480736
01213	小浜店	9170078	福井県小浜市大手町5-3	35.495048	135.745787
01218	内海店	4703321	愛知県知多郡南知多町大字内海字亥新田119	34.745464	136.882954
01227	今市店	3211261	栃木県日光市今市1160-7	36.724037	139.702908
01236	江南店	4838066	愛知県江南市高屋町西町23	35.348268	136.872574
01243	秋田新国道店	0100962	秋田県秋田市八橋大畑1-1-43	39.734809	140.097276
01255	福山御幸店	7202105	広島県福山市神辺町字十三軒屋150番地2	34.5494371	133.3559731
01257	西早稲田店	1690051	東京都新宿区西早稲田1-9-19	35.71009	139.715708
01265	鹿児島伊敷店	8900005	鹿児島県鹿児島市下伊敷1-38-5	31.61594	130.536259
01266	西台店	1740046	東京都板橋区蓮根2-27-14	35.783582	139.676559
01269	田原店	4413412	愛知県田原市谷熊町森下6	34.672379	137.302095
01277	高崎豊岡店	3700871	群馬県高崎市上豊岡町352-1	36.339936	138.967975
01278	志木駅東口店	3520001	埼玉県新座市東北2-39-8	35.8203493	139.5746343
01284	バロー清水高橋店	4240041	静岡県静岡市清水区高橋5-1-1	35.028846	138.470693
01285	福島信夫ヶ丘店	9608223	福島県福島市矢倉下5	37.7729301	140.4873237
01286	倉敷玉島店	7138102	岡山県倉敷市玉島1-7-3	34.54428	133.677841
01305	ゆめタウン長府店	7520926	山口県下関市ゆめﾀｳﾝ1-1	34.028996	131.013023
01312	宮崎大島バイパス店	8800824	宮崎県宮崎市大島町原ﾉ前1445-93	31.938303	131.439148
01314	美濃加茂店	5050041	岐阜県美濃加茂市太田町236-2	35.44459	137.012838
01315	西那須野店	3292733	栃木県那須塩原市二区町352-219	36.86221	139.964802
01316	高崎中居店	3701203	群馬県高崎市矢中町318-12	36.31013	139.051542
01317	牛久店	3001232	茨城県牛久市上柏田2-6-11	35.990223	140.157276
01318	竜ヶ崎店	3010015	茨城県竜ヶ崎市長沖町592-1	35.893018	140.159004
01322	第２阪和和泉店	5940082	大阪府和泉市富秋町2-8-16	34.50714	135.433489
01324	盛岡青山店	0200121	岩手県盛岡市月ｹ丘1-5-11	39.733732	141.108459
01327	ＪＲ行田駅前通り店	3610045	埼玉県行田市押上町16-1-4	36.118049	139.435633
01336	安城南店	4460044	愛知県安城市百石町2-36-4	34.950878	137.073867
01337	とやの球場前店	9500948	新潟県新潟市中央区女池南1-8-5	37.89191	139.049314
01339	二川湖西店	4413106	愛知県豊橋市中原町字東山85-1	34.724851	137.475005
01346	壱岐店	8115463	長崎県壱岐市芦辺町箱崎中山触2604-2芦辺ﾌｪﾘｰ乗場前	33.810775	129.751442
01347	スピナ一枝店	8040021	福岡県北九州市戸畑区一枝2-2-1	33.883785	130.839483
01351	二又瀬店	8120066	福岡県福岡市東区二又瀬20-15	33.608283	130.439292
01356	富士宮エンチョー店	4180001	静岡県富士宮市万野原新田3736-1	35.250779	138.622458
01360	祇園店	7310113	広島県広島市安佐南区西原7-17-22	34.439127	132.469947
01363	上六店	5430001	大阪府大阪市天王寺区上本町6-6-23	34.667129	135.519514
01365	三好ケ丘駅前店	4700202	愛知県みよし市三好丘1-5-1	35.121727	137.111891
01366	天拝坂店	8180059	福岡県筑紫野市塔原東5-4-8	33.497794	130.509574
01368	プラッセ川内店	8950036	鹿児島県薩摩川内市矢倉町4213-1	31.784055	130.310855
01372	上田東店	3860015	長野県上田市常入1-11-58	36.392448	138.264545
01378	引野インター店	8060065	福岡県北九州市八幡西区養福寺町2-2	33.842036	130.75241
01379	ゆうひパーク浜田店	6970017	島根県浜田市原井町1203-1	34.886295	132.067408
01385	近鉄郡山店	6391007	奈良県大和郡山市南郡山町539-11YKﾋﾞﾙ	34.647865	135.773011
01387	留萌店	0770028	北海道留萌市花園町4-1	43.936688	141.654398
01393	岸和田下松店	5960823	大阪府岸和田市下松町1-13-9	34.456403	135.39749
01394	新宿西口店	1600023	東京都新宿区西新宿7-1-8ﾋﾉﾃﾞﾋﾞﾙ1F	35.6913	139.691467
01402	十三店	5320025	大阪府大阪市淀川区新北野1-2-13	34.715079	135.478373
01407	薬院店	8100012	福岡県福岡市中央区白金1-21-13	33.578337	130.405077
01408	南観音店	7330035	広島県広島市西区南観音7-14-20	34.383417	132.429428
01410	北浦和店	3300074	埼玉県さいたま市浦和区北浦和1-2-18	35.875087	139.644798
01412	釧路木場店	0880622	北海道釧路郡釧路町木場1-11-4	43.00653	144.409402
01414	三条店	9550083	新潟県三条市荒町2-386-1	37.637883	138.951478
01425	蟹江けいさつ前店	4970044	愛知県海部郡蟹江町蟹江新田字八反割34-1	35.123562	136.77322
01431	池袋東店	1700013	東京都豊島区東池袋1-32-5	35.729463	139.720451
01435	米子内浜店	6830845	鳥取県米子市旗ｹ崎7-10-23	35.443402	133.310036
01437	筑紫通り店	8120015	福岡県福岡市博多区山王2-6-26	33.581245	130.434059
01438	八幡本城店	8070801	福岡県北九州市八幡西区本城5-1-6	33.882813	130.73128
01439	松本平田店	3990014	長野県松本市平田東1-30-1	36.196424	137.967063
01440	長野東和田店	3810038	長野県長野市大字東和田436-1	36.655246	138.226342
01443	東高円寺店	1660012	東京都杉並区和田3-56-12	35.692017	139.659869
01444	佐伯店	8760843	大分県佐伯市中の島1-7-50	32.95363	131.901183
01447	豊橋三の輪店	4400837	愛知県豊橋市三ﾉ輪町字本興寺25-1	34.7497635	137.4099191
01455	つくば南店	3050042	茨城県つくば市下広岡1055-608	36.061769	140.160035
01456	昭和町店	5450011	大阪府大阪市阿倍野区昭和町2-18-1有馬ﾊﾟﾚｽ阿倍野	34.6284	135.517553
01458	東伯アプト店	6892301	鳥取県東伯郡琴浦町大字八橋369	35.495337	133.667174
01462	イオンモール下田店	0392112	青森県上北郡おいらせ町中野平40-1	40.607718	141.418867
01463	下松店	7440076	山口県下松市せせらぎ町3-3-20	34.016185	131.859423
01469	福島八木田店	9608164	福島県福島市八木田字中島72-1	37.751135	140.445594
01472	大間々店	3760101	群馬県みどり市大間々町大間々26-4	36.433965	139.281719
01480	江坂店	5640051	大阪府吹田市豊津町14-31	34.759882	135.49286
01483	岐阜ながもり店	5008227	岐阜県岐阜市北一色4-12-27	35.414371	136.790482
01487	笹丘店	8100034	福岡県福岡市中央区笹丘1-12-19	33.565458	130.380944
01488	長崎時津店	8512102	長崎県西彼杵郡時津町浜田郷149-1	32.832976	129.855879
01493	東武池袋店	1710021	東京都豊島区西池袋1-4-6	35.729677	139.704246
01494	豊中名神口店	5610841	大阪府豊中市名神口1-1-1	34.752019	135.463129
01500	延岡瀬の口店	8820047	宮崎県延岡市紺屋町2-2-1	32.584485	131.671481
01513	金沢諸江店	9200022	石川県金沢市北安江4-12-20	36.585291	136.64773
01514	当知店	4550804	愛知県名古屋市港区当知2-1503	35.110942	136.845517
01517	ふじみ野店	3560052	埼玉県ふじみ野市苗間1-10-33	35.859073	139.52677
01519	ハンターマウンテン塩原店	3292922	栃木県那須塩原市湯本塩原字前黒ﾊﾝﾀｰﾏｳﾝﾃﾝ塩原	36.961064	139.767755
01520	青森浪館店	0380022	青森県青森市大字浪館字前田4-10-36	40.808254	140.712871
01521	楠インター店	4620064	愛知県名古屋市北区大我麻町76-3	35.233833	136.908809
01524	長嶺日赤通り店	8618039	熊本県熊本市東区長嶺南4-2-10	32.811251	130.774012
01525	直方バイパス店	8220007	福岡県直方市大字下境868-1	33.730516	130.738617
01526	南風原店	9011104	沖縄県島尻郡南風原町字宮平254	26.198181	127.734104
01528	伊勢崎南店	3720834	群馬県伊勢崎市堀口町925-1	36.289331	139.184985
01544	境マリーナ店	6840045	鳥取県境港市高松町1384-12	35.516342	133.243312
01546	神立中央店	3000013	茨城県土浦市神立町666-4	36.11015	140.230188
01555	長崎宝栄店	8528016	長崎県長崎市宝栄町3-12	32.769865	129.858069
01557	宮崎新名爪店	8800124	宮崎県宮崎市大字新名爪1838	31.974224	131.440155
01564	宍道店	6990406	島根県松江市宍道町佐々布207-14	35.39156	132.902092
01567	トキハインダストリー鶴見園店	8740832	大分県別府市大字南立石2142-8	33.290481	131.466868
01570	外環石切店	5798013	大阪府東大阪市西石切町4-6-21	34.683079	135.637714
01571	福岡遠賀店	8114303	福岡県遠賀郡遠賀町大字今古賀493-1-1	33.848069	130.667052
01576	砺波店	9391365	富山県砺波市三島町12-3	36.634023	136.952944
01591	豊橋花田店	4418019	愛知県豊橋市花田町字中ﾉ坪59-1	34.766446	137.37362
01593	松阪パワーセンター店	5150818	三重県松阪市川井町668	34.581806	136.518672
01594	西岡崎店	4440938	愛知県岡崎市昭和町字神郷41-1	34.945639	137.119497
01601	春日井如意申店	4860918	愛知県春日井市如意申町4-4-2	35.24734	136.948125
01604	浜松天王店	4350052	静岡県浜松市中央区天王町1981-8	34.73613	137.76939
01606	志摩店	5170501	三重県志摩市阿児町鵜方3016-27	34.331386	136.831253
01609	倉敷水島店	7128014	岡山県倉敷市連島中央1-9-12	34.548381	133.730662
01612	岩槻バイパス店	3390051	埼玉県さいたま市岩槻区南平野4-14-5	35.955819	139.716099
01617	森ノ宮店	5400003	大阪府大阪市中央区森ﾉ宮中央1-16-23	34.679908	135.53104
01618	敦賀店	9140814	福井県敦賀市木崎13-28	35.637543	136.04474
01624	福岡マリナ通り店	8190013	福岡県福岡市西区愛宕浜4-1-6	33.594495	130.333281
01627	都城大学通り店	8850036	宮崎県都城市広原町20-1	31.72629	131.091521
01632	中津川店	5080011	岐阜県中津川市駒場1442-7	35.491548	137.486106
01634	高座渋谷店	2420023	神奈川県大和市渋谷2-15-13	35.437331	139.463193
01635	山形北店	9900810	山形県山形市馬見ヶ崎2-11-18	38.282729	140.330688
01636	甲府高畑店	4000042	山梨県甲府市高畑1-10-2	35.64835	138.562594
01637	鳥取吉成店	6800874	鳥取県鳥取市叶304	35.473892	134.217592
01641	ゆめタウン江津店	6950016	島根県江津市嘉久志町2306-30	35.005682	132.211082
01646	フォリオ佐野店	3270004	栃木県佐野市赤坂町956-10	36.303239	139.564022
01647	名護バイパス店	9050012	沖縄県名護市字名護4558-22	26.593822	127.99654
01652	宿毛店	7880010	高知県宿毛市駅前町2-708	32.931984	132.713155
01656	瀬戸山口店	4890866	愛知県瀬戸市矢形町95	35.200347	137.097717
01657	赤磐店	7090821	岡山県赤磐市河本1078-1	34.74858	134.014789
01658	武蔵新城店	2110045	神奈川県川崎市中原区上新城2-14-23ｱﾄﾞヴｧﾝｽｽｸｴｱ武蔵新城1階	35.588829	139.630186
01659	大分インター店	8700030	大分県大分市大字三芳1071-5	33.226405	131.58285
01664	石垣真栄里店	9070002	沖縄県石垣市字真栄里撫原292-4	24.337573	124.183918
01667	花巻星が丘店	0250065	岩手県花巻市星が丘1-30-7	39.403818	141.106696
01668	Ｒ２０桜上水店	1680073	東京都杉並区下高井戸3-2-12	35.67199	139.630571
01679	佐倉ユーカリが丘店	2850854	千葉県佐倉市上座710-16	35.727732	140.163173
01680	焼津バイパス店	4250071	静岡県焼津市三ヶ名878	34.862012	138.303585
01683	高崎アカマル店	3700001	群馬県高崎市中尾町44-1	36.37637	139.024181
01691	安慶名店	9042215	沖縄県うるま市みどり町6-16-4	26.378567	127.856758
01693	広島沼田店	7313164	広島県広島市安佐南区伴東7-55-4	34.467764	132.418426
01697	長野南バイパス店	3812217	長野県長野市稲里町中央1-24-10	36.603756	138.169565
01703	敷島山の手通り店	4000124	山梨県甲斐市中下条2030-1	35.680297	138.525842
01704	千種駅南店	4640859	愛知県名古屋市千種区新栄3-20-17	35.167991	136.927855
01706	富山掛尾店	9398212	富山県富山市掛尾町619	36.66522	137.214117
01709	原当麻店	2520336	神奈川県相模原市南区当麻810-3	35.522393	139.372129
01710	大井川店	4210218	静岡県焼津市下江留1329	34.802957	138.276907
01712	群馬大胡店	3710231	群馬県前橋市堀越352-1	36.423056	139.151563
01713	加古川野口店	6750018	兵庫県加古川市野口町坂元145-1	34.758128	134.850822
01715	秋田大館中道店	0170045	秋田県大館市中道1-8-25	40.282229	140.556024
01724	福岡原店	8140022	福岡県福岡市早良区原5-10-10	33.566415	130.343255
01725	大分杵築店	8730001	大分県杵築市大字杵築北浜665-346	33.419103	131.61984
01729	恵庭店	0611435	北海道恵庭市中島町6-7-8	42.894418	141.579162
01730	横浜こどもの国店	2270038	神奈川県横浜市青葉区奈良5-12-13	35.554408	139.484557
01736	あべちか店	5430056	大阪府大阪市天王寺区堀越町3	34.650381	135.514208
01739	大阪駅前第２ビル店	5300001	大阪府大阪市北区梅田1-2-2-B200	34.699307	135.494537
01740	伊豆函南店	4190125	静岡県田方郡函南町肥田356-1	35.071409	138.932763
01742	大分臼杵店	8750062	大分県臼杵市大字野田168	33.1084	131.777889
01743	横浜浅間町店	2200072	神奈川県横浜市西区浅間町1-6-14	35.461318	139.609152
01744	広島段原店	7320814	広島県広島市南区段原南1-25-2	34.382959	132.477129
01750	宝塚中山店	6650874	兵庫県宝塚市中筋8-5-23	34.81688	135.375433
01752	廿日市宮内店	7380034	広島県廿日市市宮内2-10-26	34.347498	132.309971
01754	博多中洲店	8100801	福岡県福岡市博多区中洲3-7-18	33.592427	130.406752
01755	沖縄西原店	9030125	沖縄県中頭郡西原町字上原2-29-3	26.241476	127.761584
01757	鹿児島ベイサイド店	8920812	鹿児島県鹿児島市浜町2-2	31.603391	130.568566
01761	岡山江崎店	7028005	岡山県岡山市中区江崎691-1	34.620671	133.962518
01762	アメリカンワールド北上店	0240072	岩手県北上市北鬼柳32地割36	39.296133	141.094651
01764	前橋フォリオ駒形店	3792152	群馬県前橋市下大島町1151-1	36.359116	139.122102
01766	八戸三日町店	0310032	青森県八戸市大字三日町1-1	40.509483	141.490889
01768	嵐山バイパス店	3550215	埼玉県比企郡嵐山町大字平沢408-1	36.045709	139.309036
01771	飯塚幸袋店	8200065	福岡県飯塚市中426-1	33.66861	130.680331
01772	下北沢北口店	1550031	東京都世田谷区北沢2-31-12	35.665578	139.668993
01775	相鉄ムービル店	2200005	神奈川県横浜市西区南幸2-1-22相鉄南幸第2ﾋﾞﾙ202	35.464959	139.618711
01780	長崎佐々店	8570353	長崎県北松浦郡佐々町沖田免字中の間159	33.225384	129.639339
01782	福岡岡垣店	8114233	福岡県遠賀郡岡垣町野間2-16-10	33.851764	130.615176
01785	海南店	6420002	和歌山県海南市日方1279-5	34.1606	135.217479
01786	草津中央店	5250051	滋賀県草津市木川町394-1	35.023545	135.944619
01788	春日部大沼店	3440038	埼玉県春日部市大沼5-56	35.966834	139.751205
01802	小山城南店	3230820	栃木県小山市西城南6-12-2	36.294661	139.800124
01803	宇都宮東店	3210942	栃木県宇都宮市峰1-23-30	36.554297	139.91632
01804	新下関コスパ店	7510886	山口県下関市大字石原300	34.016234	130.949384
01809	佐賀兵庫店	8490918	佐賀県佐賀市兵庫南4-13	33.263088	130.316392
01810	久留米小森野店	8300001	福岡県久留米市小森野5-2-1	33.336944	130.51762
01811	和泉多摩川駅前店	2010014	東京都狛江市東和泉4-2-1	35.628971	139.576669
01812	カリブ梅島店	1230851	東京都足立区梅田6-9-16	35.766754	139.797491
01815	五所川原店	0370036	青森県五所川原市中央6-61	40.8016447	140.4479868
01817	名寄店	0960071	北海道名寄市字徳田89-1	44.328076	142.462728
01823	ＪＲ尼崎店	6610976	兵庫県尼崎市潮江1-4-5	34.736703	135.429262
01831	横浜佐江戸店	2240054	神奈川県横浜市都筑区佐江戸町390	35.514405	139.557581
01838	結城バイパス店	3070008	茨城県結城市下り松3-2-6	36.287346	139.876626
01839	野々市新庄店	9218824	石川県野々市市新庄2-801	36.503752	136.610407
01841	関緑ヶ丘店	5013265	岐阜県関市小瀬2536-1	35.495309	136.89054
01842	両国店	1300026	東京都墨田区両国3-21-16	35.69383	139.793266
01846	大和店	2420017	神奈川県大和市大和東3-1-1	35.47226	139.462313
01853	磐田店	4380071	静岡県磐田市今之浦2-9-2	34.719491	137.860441
01861	津山城北通り店	7080822	岡山県津山市林田150-1	35.066378	134.018874
01864	宇都宮細谷店	3200073	栃木県宇都宮市細谷1-6-25	36.591094	139.856381
01867	福井エルパ店	9100836	福井県福井市大和田2-1212	36.094445	136.249128
01868	靱本町店	5500004	大阪府大阪市西区靱本町1-6-17	34.683858	135.491748
01874	綱島西店	2230053	神奈川県横浜市港北区綱島西3-1-6	35.540101	139.631309
01875	福山川口店	7200821	広島県福山市東川口町4-9-22	34.476595	133.385617
01877	須坂店	3820004	長野県須坂市大字小河原高畑町1088-1	36.6736532	138.3139547
01880	トキハわさだタウン店	8701155	大分県大分市大字玉沢755-1	33.188581	131.585333
01881	早島インター店	7010304	岡山県都窪郡早島町大字早島2576-1	34.603169	133.820787
01883	中津如水店	8710011	大分県中津市大字下池永861-1	33.584308	131.217816
01889	八代あまがえ通り店	8660893	熊本県八代市海士江町3351-1	32.527204	130.624471
01899	宇都宮岩曽店	3210973	栃木県宇都宮市岩曽町1318-1	36.585258	139.905533
01910	ドン・キホーテ浦和原山店	3360931	埼玉県さいたま市緑区原山4-3-3	35.870394	139.67285
01912	飯塚かやの森店	8200011	福岡県飯塚市柏の森7-1	33.639866	130.701641
01915	金沢中央バイパス店	9208202	石川県金沢市西都1-277	36.590955	136.626665
01921	熊本健軍店	8612118	熊本県熊本市東区花立1-4-13	32.781529	130.774008
01923	平井南口店	1320035	東京都江戸川区平井3-30-5	35.706629	139.844083
01924	トヨタ高橋店	4710808	愛知県豊田市渋谷町3-38-7	35.084706	137.186357
01928	倉敷児島店	7110906	岡山県倉敷市児島下の町2-1577-4	34.47761	133.824246
01929	新居浜喜光地店	7920827	愛媛県新居浜市西喜光地町8-2	33.937448	133.295681
01930	西条店	7930028	愛媛県西条市新田199-7	33.927466	133.185002
01931	伊予三島店	7990422	愛媛県四国中央市中之庄町76	33.977571	133.530627
01932	大洲店	7950071	愛媛県大洲市新谷乙504-7	33.534653	132.590809
01933	宇和島店	7980022	愛媛県宇和島市伊吹町1500-1	33.236735	132.574746
01938	多気バイパス店	5192179	三重県多気郡多気町仁田696-1	34.483284	136.548929
01944	鴻の巣店	4680003	愛知県名古屋市天白区鴻の巣1-306	35.141523	136.997759
01946	池袋西口店	1710021	東京都豊島区西池袋5-2-11春谷ﾋﾞﾙ	35.729677	139.704246
01947	いわつか店	4530842	愛知県名古屋市中村区剣町220	35.159782	136.846292
01948	伊勢崎華蔵寺前店	3720004	群馬県伊勢崎市堤下町113-1	36.338536	139.195753
01951	倉敷福田公園前店	7128044	岡山県倉敷市東塚5-1204-1	34.527385	133.761534
01952	深谷駅前店	3660824	埼玉県深谷市西島町3-1-7	36.192893	139.283095
01957	高知野市店	7815232	高知県香南市野市町西野1711-1	33.564098	133.69356
01958	高知インター店	7800071	高知県高知市高そね14-10	33.571472	133.556153
01959	須崎店	7850035	高知県須崎市大間東町4-35	33.408401	133.287905
01960	高松レインボー店	7618075	香川県高松市多肥下町1558-9	34.301456	134.056982
01961	春日部藤塚店	3440011	埼玉県春日部市藤塚1141-1	35.971704	139.777246
01964	宇部インター店	7550037	山口県宇部市西梶返1-12-10	33.95426	131.26024
01968	古河旭町店	3060012	茨城県古河市旭町2-1-64	36.196895	139.723756
01969	大船店	2470056	神奈川県鎌倉市大船2-16-50	35.350217	139.537416
01970	八千代中央店	2760042	千葉県八千代市ゆりのき台2-3-1	35.731933	140.10413
01975	甲府昭和通り店	4093851	山梨県中巨摩郡昭和町河西1082-1	35.615594	138.524193
01976	守山中央店	4630096	愛知県名古屋市守山区森宮町176	35.209466	136.964723
01987	久留米上津店	8300056	福岡県久留米市本山1-4-35	33.286196	130.519865
01989	名駅南店	4540003	愛知県名古屋市中川区松重町4-35ﾀｲﾎｳ名駅南ﾋﾞﾙ	35.155831	136.892737
01994	佐賀南バイパス店	8400023	佐賀県佐賀市本庄町大字袋267-7	33.238252	130.306296
01995	阿南店	7740015	徳島県阿南市才見町荒井ｹ内2-1	33.913082	134.67828
01998	大倉山店	2220037	神奈川県横浜市港北区大倉山3-29-2	35.524062	139.623611
01999	日向店	8830068	宮崎県日向市亀崎西1-12	32.437691	131.628947
02001	成増店	1750094	東京都板橋区成増2-15-10	35.780887	139.632261
02011	国立大学通り店	1860002	東京都国立市東1ｰ15ｰ8吉野ﾋﾞﾙ1F	35.693484	139.450907
02108	西友成増店	1750094	東京都板橋区成増3-11-3	35.780887	139.632261
02144	渋谷道玄坂店	1500043	東京都渋谷区道玄坂2-29-8	35.658302	139.69736
02232	秋葉原末広町店	1010021	東京都千代田区外神田3-16-14	35.701934	139.77072
02240	北浜店	5410042	大阪府大阪市中央区今橋1-7-14	34.69048	135.503552
02285	柏東口店	2770005	千葉県柏市柏2-3-4冨士見軒ﾋﾞﾙ(ｲﾄｰﾖｰｶ堂同一ﾋﾞﾙ)1F2F	35.862973	139.976664
02294	江ノ島店	2510037	神奈川県藤沢市鵠沼海岸1-6-18	35.320766	139.467386
02297	銀座ナイン店	1040061	東京都中央区銀座8-7先銀座ﾅｲﾝ2号館	35.671212	139.765106
02299	蒲生四丁目店	5360016	大阪府大阪市城東区蒲生4-22-4泉秀園ﾋﾞﾙ1階	34.698752	135.541544
02318	大崎店	1416002	東京都品川区大崎2-1-12F	35.618461	139.7276249
02322	市ヶ谷田町店	1620843	東京都新宿区市谷田町1-1	35.695043	139.737713
02323	芝大門店	1050012	東京都港区芝大門1-15-7	35.656897	139.75384
02325	関内店	2310032	神奈川県横浜市中区不老町1-2-1	35.441476	139.636234
02336	ニッセイ新大阪ビル店	5320003	大阪府大阪市淀川区宮原3-4-30	34.73675	135.497918
02347	ＭＯＳＤＯイオンモール広島府中店	7358588	広島県安芸郡府中町大須2-1-1ｲｵﾝﾓｰﾙ広島府中ｿﾚｲﾕ内1階	34.372778	132.510278
02350	西銀座店	1040061	東京都中央区銀座四丁目1	35.671212	139.765106
02351	飯田橋東店	1020072	東京都千代田区飯田橋3-6-9	35.69954	139.749321
02352	四谷四丁目店	1600004	東京都新宿区四谷4-7白川ﾋﾞﾙ1F	35.687623	139.723109
02357	青物横丁駅前店	1400004	東京都品川区南品川2-5-7松本ﾋﾞﾙ1階	35.611779	139.741202
02368	専修大学生田店	2140033	神奈川県川崎市多摩区東三田2-1-1専修大学生田10号館4F	35.610052	139.55094
02380	渋谷公園通り店	1500042	東京都渋谷区宇田川町2-1	35.66163	139.697169
02385	阪急大井町店	1400014	東京都品川区大井1-50-5	35.600618	139.730063
02386	松戸駅東口店	2710092	千葉県松戸市松戸1178-8	35.777515	139.901762
02390	羽田空港第３ターミナル店	1440041	東京都大田区羽田空港二丁目6-5東京国際空港国際線旅客ﾀｰﾐﾅﾙﾋﾞﾙ4階	35.552413	139.769738
02392	フレンテ笹塚店	1510073	東京都渋谷区笹塚1-47-1	35.675019	139.666622
02393	吉川美南店	3420038	埼玉県吉川市美南4-1-6	35.8682967	139.8524449
02395	くずは店	5731121	大阪府枚方市楠葉花園町14-10京阪くずは駅ﾋﾞﾙ南館1-A区画	34.860151	135.676001
02398	ヨークフーズ新宿富久店	1620067	東京都新宿区富久町17-2	35.693258	139.716002
02399	恵比寿東店	1500013	東京都渋谷区恵比寿1-10-7	35.645289	139.715736
02400	大宮東口店	3300846	埼玉県さいたま市大宮区大門町2-118	35.907399	139.627457
02404	原宿表参道店	1500001	東京都渋谷区神宮前1-13-21ｼｬﾝｾﾞｰﾙ原宿1号館	35.669224	139.707295
02405	ホワイティうめだ店	5300018	大阪府大阪市北区小松原町梅田地下街4-2	34.702135	135.500288
02406	高田馬場四丁目店	1690075	東京都新宿区高田馬場4-9-14	35.712056	139.703085
02407	豊洲駅前店	1350061	東京都江東区豊洲4-1-4ﾍﾞｲﾎｰﾑ豊洲1階	35.654488	139.794319
02408	大宮ソニックシティ前店	3300854	埼玉県さいたま市大宮区桜木町2-902107区画	35.906505	139.619051
02409	うめきたグリーンプレイス店	5300011	大阪府大阪市北区大深町5-1うめきたｸﾞﾘｰﾝﾌﾟﾚｲｽ2階213区画	34.704221	135.492719
02411	六本木店	1060032	東京都港区六本木7-14-6	35.663498	139.734201
02512	ＭＯＳ５０　一号車	1416002	東京都品川区大崎2-1-1ThinkParkTower2階	35.618461	139.7276249
02513	ＭＯＳ５０　二号車	1416002	東京都品川区大崎2-1-1ThinkParkTower2階	35.618461	139.7276249
02521	スタンドバイモス東武池袋駅店	1710021	東京都豊島区西池袋1-1-21	35.729677	139.704246
02617	マザーリーフさっぽろ東急店	0600004	北海道札幌市中央区北4条西2丁目さっぽろ東急百貨店2F	43.064727	141.340607
02627	マザーリーフ横浜スカイビル店	2200011	神奈川県横浜市西区高島2-19-12ｽｶｲﾋﾞﾙ2F	35.463156	139.623956
02629	マザーリーフイオンモール広島府中店	7358588	広島県安芸郡府中町大須2-1-1-2008	34.372778	132.510278
02655	モスプレミアム千駄ヶ谷店	1510051	東京都渋谷区千駄ヶ谷1-8-11	35.679683	139.707019
02657	モスプレミアム桜木町クロスゲート店	2310062	神奈川県横浜市中区桜木町1-101-1	35.451521	139.63042
02658	ＭＯＳＤＯららぽーと新三郷店	3418550	埼玉県三郷市新三郷ららｼﾃｨ3-1-1ららぽｰと新三郷2F2070	35.85945	139.86638
02671	カフェ山と海と太陽アスティ静岡店	4200851	静岡県静岡市葵区黒金町47ｱｽﾃｨ静岡	34.972027	138.389376
02672	カフェ山と海と太陽　アトレ亀戸店	1360071	東京都江東区亀戸5-1-1ｱﾄﾚ亀戸1階	35.698907	139.829848
02858	マザーリーフＴＳグランデュオ立川店	1900023	東京都立川市柴崎町3-2-1ｸﾞﾗﾝﾃﾞｭｵ立川7階	35.692082	139.406617
02859	マザーリーフＴＳ大崎店	1416090	東京都品川区大崎2-1-1ThinkParkPlaza2F	35.618461	139.7276249
02861	マザーリーフＴＳ阪急西宮ガーデンズ店	6638204	兵庫県西宮市高松町14-2阪急西宮ｶﾞｰﾃﾞﾝｽﾞ3階南ﾓｰﾙ	34.745865	135.35963
02864	マザーリーフＴＳ流山おおたかの森店	2700139	千葉県流山市おおたかの森南1-5-1流山おおたかの森S･C本館2階	35.867331	139.924348
02870	マザーリーフＴＳ桜木町クロスゲート店	2310062	神奈川県横浜市中区桜木町1-101-1	35.451521	139.63042
02873	マザーリーフＴＳグランエミオ所沢店	3590037	埼玉県所沢市くすのき台1-14-5ｸﾞﾗﾝｴﾐｵ所沢3階TSUTAYAﾌﾞｯｸｽﾄｱ内	35.78806	139.476965
02951	あえん自由が丘店	1520035	東京都目黒区自由が丘2-8-20	35.611285	139.667551
02952	あえん伊勢丹会館店	1600022	東京都新宿区新宿3丁目15-17伊勢丹会館4F	35.692682	139.708451
02953	あえん目白店	1710031	東京都豊島区目白2丁目39-1ﾄﾗｯﾄﾞ目白2F	35.722885	139.704196
02954	あえん大崎ＴｈｉｎｋＰａｒｋ店	1416002	東京都品川区大崎2-1-1ThinkPark2F	35.618461	139.7276249
02971	玄米食堂あえん　エキュート大宮店	3300853	埼玉県さいたま市大宮区錦町630番地JR東日本大宮駅構内	35.907107	139.623646
02973	玄米食堂あえんアコルデ代々木上原店	1510066	東京都渋谷区西原3丁目8-5ｱｺﾙﾃﾞ代々木上原1F	35.673209	139.679289
02974	玄米食堂あえん　川口駅前店	3320015	埼玉県川口市川口1-1-1ｷｭﾎﾟ･ﾗ専門店A3階A305区画	35.800942	139.71448
02975	玄米食堂あえん　町田パリオ店	1940022	東京都町田市森野1-15-13ﾊﾟﾘｵﾋﾞﾙ1F	35.550722	139.436628
03301	武蔵境北口店	1800022	東京都武蔵野市境2-2-23	35.702722	139.542029
03304	島原店	8550036	長崎県島原市城内三丁目1270番3	32.795013	130.363957
03307	京急久里浜店	2390831	神奈川県横須賀市久里浜4-8-12	35.225991	139.70659
03308	阪急伊丹店	6640851	兵庫県伊丹市中央1-6-19	34.77985	135.416247
03309	入間丸広百貨店	3580003	埼玉県入間市豊岡1-6-12	35.835218	139.390044
04002	玉名店	8650065	熊本県玉名市築地100-1	32.934417	130.532131
04009	都立大学店	1520023	東京都目黒区八雲1-5-1	35.620677	139.66983
04013	鶴見西口店	2300062	神奈川県横浜市鶴見区豊岡町8-23	35.509091	139.67406
04014	西舞鶴店	6240821	京都府舞鶴市字公文名小字大将軍291	35.432606	135.329847
04015	三年坂店	6408145	和歌山県和歌山市岡山丁2-7	34.226574	135.176559
04024	共和店	4740074	愛知県大府市共栄町8-11-11	35.041819	136.956249
04027	津島店	4960071	愛知県津島市新開町1-29-1	35.171307	136.749423
04033	大野城店	8160932	福岡県大野城市瓦田5-3-1	33.5334	130.484905
04042	溝の口中央店	2130001	神奈川県川崎市高津区溝口3-1-3	35.603526	139.613372
04044	鶴ヶ峰店	2410022	神奈川県横浜市旭区鶴ヶ峰2-20-3	35.473722	139.549466
04047	都島店	5340021	大阪府大阪市都島区都島本通2-14-12ｸﾞﾗﾝﾋﾟｱｲｸﾔﾏﾋﾞﾙ1階	34.708124	135.528415
04048	武蔵浦和店	3360021	埼玉県さいたま市南区別所7-1-15	35.851116	139.645054
04049	浜松三島町店	4300853	静岡県浜松市中央区三島町1366-2	34.687744	137.744813
04053	高岡南店	9330874	富山県高岡市京田433	36.729568	137.014066
04054	野々市押越店	9218803	石川県野々市市押越1-203	36.539101	136.607338
04057	イオン若松店	8080103	福岡県北九州市若松区二島1-3-1	33.893027	130.746348
04064	筑後店	8330055	福岡県筑後市大字熊野1437-1	33.229277	130.500333
04066	大塚北口店	1700004	東京都豊島区北大塚2-27-1	35.733758	139.727936
04069	烏丸今出川店	6020033	京都府京都市上京区今出川町329-1	35.028776	135.744985
04074	東船橋駅前店	2730002	千葉県船橋市東船橋4-31-7	35.69694	140.0044
04076	長崎浜町店	8500853	長崎県長崎市浜町1-4	32.744023	129.877892
04077	ウニクス南古谷店	3500026	埼玉県川越市泉町4-8ｳﾆｸｽ南古谷SC内	35.904785	139.513531
04079	坂戸にっさい店	3500269	埼玉県坂戸市にっさい花みず木2丁目7-1	35.971066	139.368236
04080	巻店	9530041	新潟県新潟市西蒲区巻甲4013-3	37.7664419	138.9078201
04081	幡ヶ谷店	1510072	東京都渋谷区幡ヶ谷2-52-3	35.677618	139.673933
04085	五月台店	2150025	神奈川県川崎市麻生区五力田2-3-1	35.600295	139.493876
04087	八王子北口店	1920081	東京都八王子市横山町1-6	35.659843	139.336985
04088	高知土佐道路店	7808050	高知県高知市鴨部1105-1	33.546216	133.505525
04094	逗子店	2490006	神奈川県逗子市逗子5-2-50	35.295338	139.580073
04096	門真岸和田店	5710002	大阪府門真市岸和田3-43-34	34.727818	135.620249
04098	エミオ武蔵関店	1770051	東京都練馬区関町北4-2-13	35.728666	139.573882
04099	仙台西多賀店	9820804	宮城県仙台市太白区鈎取1-1-7	38.225878	140.841698
04101	佐原店	2870003	千葉県香取市佐原ｲ4224-3	35.892849	140.505678
04102	袋井店	4370065	静岡県袋井市堀越1-10-3	34.755478	137.910509
04104	秋田広面店	0100041	秋田県秋田市広面字小沼古川端13-1	39.721646	140.145526
04107	イオンタウン小郡店	7540023	山口県山口市小郡前田町3-10	34.085153	131.397683
04110	東出雲アイパルテ店	6990110	島根県松江市東出雲町錦新町8-1-3	35.432165	133.138426
04114	日田店	8770077	大分県日田市大字友田南友田町519-1	33.324528	130.907925
04116	上越高田店	9430834	新潟県上越市西城町1-2-2	37.114129	138.250027
04124	千歳サーモンパーク店	0660021	北海道千歳市東郊1-3-8	42.8369	141.663037
04127	ビバホーム鴻巣店	3650062	埼玉県鴻巣市箕田1771-1	36.081266	139.488549
04128	赤坂けやき通り店	8100042	福岡県福岡市中央区赤坂1-1-5鶴田けやきﾋﾞﾙ1階	33.585006	130.387956
04129	吉祥寺サンロード店	1800004	東京都武蔵野市吉祥寺本町1-12-5	35.705628	139.57637
04131	熊本東バイパス店	8620924	熊本県熊本市中央区帯山2-6-14	32.803883	130.751881
04132	大分鶴崎店	8700131	大分県大分市大字皆春1600-6	33.233528	131.682372
04135	東府中店	1830006	東京都府中市緑町3-8-7	35.672408	139.489073
04136	伊万里店	8480032	佐賀県伊万里市二里町大里甲2082-1	33.26602	129.865726
04137	長崎大村店	8560814	長崎県大村市松並2-894	32.921054	129.948004
04146	新琴似四番通店	0010907	北海道札幌市北区新琴似7条17丁目4-1	43.117496	141.32052
04147	福岡三輪店	8380804	福岡県朝倉郡筑前町森山291-1	33.453463	130.628784
04149	豊田旭ヶ丘店	1910065	東京都日野市旭が丘1-10-12	35.657841	139.368368
04155	隼人店	8995117	鹿児島県霧島市隼人町見次986-1	31.741195	130.740374
04158	さくらんぼ東根駅前店	9993720	山形県東根市さくらんぼ駅前1-7-23	38.428101	140.384383
04166	大分高城店	8700156	大分県大分市高城新町1-3	33.242861	131.652061
04168	熊本近見店	8614101	熊本県熊本市南区近見9-2-1	32.763878	130.6936
04170	日暮里店	1160014	東京都荒川区東日暮里5-51-1	35.729408	139.781216
04172	熊谷駅店	3600036	埼玉県熊谷市桜木町1-1-1	36.137559	139.38794
04176	春日井市民病院前店	4860803	愛知県春日井市西山町3-15-4	35.275106	136.976304
04178	牛頸店	8160973	福岡県大野城市横峰1-2-13	33.505986	130.473573
04179	福岡小郡店	8380141	福岡県小郡市大字小郡693-2	33.404597	130.548156
04181	山形駅前大通り店	9900039	山形県山形市香澄町2-2-41	38.248282	140.331466
04184	松山天山店	7900951	愛媛県松山市天山3-1-29	33.822246	132.781407
04188	町田駅ターミナル口店	1940013	東京都町田市原町田4-6-15	35.543444	139.451623
04192	一宮浅野店	4910871	愛知県一宮市浅野山林64-1	35.294663	136.82909
04200	博多バスターミナル店	8120012	福岡県福岡市博多区博多駅中央街2-1	33.589388	130.419404
04209	くりえいと赤間店	8114184	福岡県宗像市くりえいと1-5-2	33.813225	130.563889
04215	さくら氏家店	3291323	栃木県さくら市卯の里3-43-13	36.680545	139.960072
04216	河辺店	1980036	東京都青梅市河辺町8-3-8	35.781599	139.28843
04217	国領駅前店	1820022	東京都調布市国領町2-5-15	35.648175	139.558329
04218	門前仲町店	1350048	東京都江東区門前仲町1-20-3	35.673011	139.79525
04219	泉北２号豊田店	5900106	大阪府堺市南区豊田1058	34.494612	135.498841
04222	フェイス高須店	8080144	福岡県北九州市若松区高須東4-1-10	33.890684	130.695353
04224	ビバホーム大井町店	3560044	埼玉県ふじみ野市西鶴ヶ岡1-3-15ﾋﾞﾊﾞﾓｰﾙ埼玉大井内	35.862752	139.498364
04225	土佐高岡店	7811102	高知県土佐市高岡町乙2741-1	33.502052	133.42205
04226	網走店	0930034	北海道網走市つくしヶ丘2-3-2	43.99331	144.288604
04227	下館店	3080041	茨城県筑西市乙931	36.306522	139.974549
04229	伊勢崎バイパス店	3720812	群馬県伊勢崎市連取町928	36.317666	139.180388
04231	宇部厚南店	7590204	山口県宇部市大字妻崎開作508-1	33.977915	131.209201
04232	フジグラン緑井店	7310103	広島県広島市安佐南区緑井1-5-2	34.47114	132.477669
04235	コープ西大寺店	7048112	岡山県岡山市東区西大寺上3-855-1	34.659377	134.03519
04236	福岡箱崎店	8120053	福岡県福岡市東区箱崎5-1-8楽市楽座箱崎内	33.623623	130.422238
04238	石岡店	3150001	茨城県石岡市石岡1-3-1	36.192382	140.283549
04251	姶良バイパス店	8995431	鹿児島県姶良市西餅田286	31.732027	130.621456
04255	松浦公園前店	8570053	長崎県佐世保市常盤町7-13ﾊﾟｰｸｻｲﾄﾞﾊﾟﾙ1F101号	33.173931	129.718694
04258	貝塚店	5970081	大阪府貝塚市麻生中1056-1	34.434591	135.373981
04261	徳島末広ベイサイド店	7700865	徳島県徳島市南末広町7-4	34.060351	134.574306
04262	加賀店	9220334	石川県加賀市西島町57-1	36.31233	136.367008
04263	たるい店	5032124	岐阜県不破郡垂井町宮代3057-1	35.360722	136.527838
04264	岡崎大西店	4440871	愛知県岡崎市大西1-16-7	34.941846	137.182584
04267	伏見大手筋店	6128053	京都府京都市伏見区東大手町754	34.93313	135.761668
04268	橋本彩の台店	6480019	和歌山県橋本市あやの台1-2-3	34.339151	135.65257
04270	西春店	4810033	愛知県北名古屋市西之保青野193	35.246979	136.8622
04271	港北ニュータウンセンター中央店	2240001	神奈川県横浜市都筑区中川8-1-14	35.557911	139.570094
04272	広島八丁堀店	7300013	広島県広島市中区八丁堀6-3	34.39616	132.463245
04273	松山三津店	7918067	愛媛県松山市古三津2-18-29	33.853375	132.729833
04274	上板橋北口店	1740071	東京都板橋区常盤台4-31-5幸ﾋﾞﾙ	35.762039	139.686094
04278	会津千石店	9650026	福島県会津若松市平安町1-17	37.501021	139.942266
04285	姫路辻井店	6700083	兵庫県姫路市辻井3-6-8	34.850665	134.671809
04286	青森大野店	0300852	青森県青森市大字大野字若宮171	40.808486	140.733932
04287	伊達店	0520021	北海道伊達市末永町44-18	42.479053	140.869215
04288	山形七日町店	9900043	山形県山形市本町2-4-18	38.250868	140.338284
04289	菊川店	4390031	静岡県菊川市加茂2194-1	34.743915	138.078587
04293	熊谷肥塚店	3600015	埼玉県熊谷市肥塚4-120	36.160301	139.387838
04295	ルート４６滝沢店	0200766	岩手県滝沢市大釜八幡前121-1	39.703586	141.060819
04298	倉敷笹沖東店	7100038	岡山県倉敷市新田3145-1	34.583072	133.778477
04299	四日市生桑店	5120911	三重県四日市市生桑町128-3	34.985589	136.597663
04300	梅屋敷店	1430014	東京都大田区大森中2-2-16	35.567632	139.732825
04305	呉焼山店	7370935	広島県呉市焼山中央2-6-56	34.292972	132.560964
04307	稚内店	0970014	北海道稚内市新光町1483ｰ7	45.376279	141.699651
04308	近鉄あべの橋店	5450052	大阪府大阪市阿倍野区阿倍野筋1-1-43あべの橋駅東口構内	34.641897	135.511538
04309	近鉄布施店	5770056	大阪府東大阪市長堂1-1-1	34.666956	135.564934
04314	紀三井寺店	6410012	和歌山県和歌山市紀三井寺674宮田ﾋﾞﾙ	34.178174	135.190217
04321	八尾かやふり店	5810834	大阪府八尾市萱振町3-46-1	34.639087	135.605233
04335	カインズ沼津店	4100315	静岡県沼津市桃里571-1ｶｲﾝｽﾞ沼津店内	35.133839	138.766003
04338	フジグラン神辺店	7202104	広島県福山市神辺町字道上75	34.554556	133.3554897
04343	追浜店	2370063	神奈川県横須賀市追浜東町3-63	35.312544	139.632184
04345	佐賀江北店	8490502	佐賀県杵島郡江北町大字佐留志2096-1	33.21967	130.167034
04356	松山東環状店	7900916	愛媛県松山市束本1-6-4	33.83085	132.787418
04363	ユニバーサル・シティウォーク大阪店	5540024	大阪府大阪市此花区島屋6-2-61-302･2	34.67447	135.440056
04365	富山呉羽店	9300108	富山県富山市本郷東部16-3	36.732671	137.150507
04370	黒埼パーキングエリア店	9501121	新潟県新潟市西区板井1807	37.82048	139.000991
04379	練馬駅店	1760001	東京都練馬区練馬1-3-5	35.741082	139.650717
04394	川崎東口店	2100007	神奈川県川崎市川崎区駅前本町7-3	35.53115	139.698574
04407	宮崎清武店	8891605	宮崎県宮崎市清武町加納乙451-1	31.871759	131.397004
04411	国府店	7793117	徳島県徳島市国府町日開437-1	34.082459	134.477786
04413	アイ・モール高砂店	6760807	兵庫県高砂市米田町島83-1	34.783893	134.802361
04419	武庫之荘南口店	6610033	兵庫県尼崎市南武庫之荘1-14-8	34.746353	135.386667
04421	南紀白浜店	6460011	和歌山県田辺市新庄町3776-14	33.712975	135.403095
04424	鯖江店	9160041	福井県鯖江市東鯖江1丁目105番	35.9462967	136.1960787
04426	北広島店	0611131	北海道北広島市美沢4-1-1	42.983396	141.55704
04428	そよら西宮今津店	6620923	兵庫県西宮市浜松原町21-1	34.726784	135.345543
04429	東長崎店	8510134	長崎県長崎市田中町226-41	32.771601	129.938493
04431	あづみ野穂高店	3998303	長野県安曇野市穂高801-1	36.337699	137.885455
04433	湘南台店	2520804	神奈川県藤沢市湘南台2ｰ8ｰ4	35.397154	139.46818
04435	福岡野間店	8150041	福岡県福岡市南区野間2-2-3	33.556001	130.411265
04436	春日桜ヶ丘店	8160872	福岡県春日市桜ヶ丘4-20	33.546249	130.449032
04437	枚方茄子作店	5730071	大阪府枚方市茄子作5-779-1	34.784023	135.664009
04438	勝川店	4860945	愛知県春日井市勝川町6-151	35.22589	136.951009
04439	藤枝店	4260066	静岡県藤枝市青葉町5-1-25	34.842476	138.242875
04441	船橋本町店	2730005	千葉県船橋市本町3-33-6	35.700626	139.987176
04442	新潟大学前店	9502045	新潟県新潟市西区五十嵐東1-1-10	37.876551	138.95811
04443	アリオ川口店	3320033	埼玉県川口市並木元町1-79	35.808569	139.71409
04444	ベルクス岩槻店	3390074	埼玉県さいたま市岩槻区本宿428-1	35.966168	139.691345
04445	幕張本郷店	2620033	千葉県千葉市花見川区幕張本郷7-4-29	35.670427	140.044763
04452	福岡志免店	8112207	福岡県糟屋郡志免町大字南里2-34-3	33.598027	130.470038
04454	水沢店	0230003	岩手県奥州市水沢区佐倉河字川原田80-1	39.168914	141.136827
04456	溝の口南口店	2130011	神奈川県川崎市高津区久本1-2-1	35.596217	139.614436
04457	須賀川東店	9620852	福島県須賀川市仲の町171-1	37.297384	140.38351
04460	奄美大島店	8940061	鹿児島県奄美市名瀬朝日町3-1	28.398567	129.526071
04462	衣笠店	2380031	神奈川県横須賀市衣笠栄町1-17	35.259448	139.660799
04464	新発田店	9570065	新潟県新発田市舟入町3-4-8	37.956085	139.307964
04465	本宮インター店	9691104	福島県本宮市荒井字久保田132-33	37.486314	140.381443
04472	ベイサイド門司店	8000063	福岡県北九州市門司区大里本町3-10-4	33.907487	130.932716
04473	新津店	9560035	新潟県新潟市秋葉区程島1964-1	37.783768	139.116075
04478	下吉田店	4030004	山梨県富士吉田市下吉田6-24-25	35.494203	138.810955
04480	コザ店	9040031	沖縄県沖縄市上地1-11-5	26.332865	127.792483
04482	尾西店	4940007	愛知県一宮市小信中島字郷東2420	35.31397	136.747075
04484	国立北口店	1850034	東京都国分寺市光町1-42-19	35.705502	139.443606
04485	静岡小鹿店	4228021	静岡県静岡市駿河区小鹿734-1	34.973656	138.422762
04486	瑞江店	1320011	東京都江戸川区瑞江2-3-10ｻﾃｨﾊﾞ瑞江1F	35.697026	139.895331
04489	西葛西北口店	1340088	東京都江戸川区西葛西3-22-16	35.665203	139.859138
04492	島田店	4270041	静岡県島田市中河町8968-4	34.84384	138.173908
04493	福山松永店	7290114	広島県福山市柳津町1-4-17	34.437994	133.265584
04495	防府コスパ店	7470836	山口県防府市大字植松554-1	34.041792	131.529577
04496	新宮店	6470042	和歌山県新宮市下田2-2-7	33.717605	135.993452
04497	河内長野店	5860023	大阪府河内長野市野作町11-22	34.452018	135.560494
04500	東金店	2830067	千葉県東金市東上宿1-6-81	35.556138	140.363873
04501	高松栗林店	7600074	香川県高松市桜町2-14-24	34.329059	134.052539
04511	西中島南方店	5320011	大阪府大阪市淀川区西中島3ｰ23ｰ9	34.727616	135.498035
04512	西院店	6150021	京都府京都市右京区西院三蔵町17RINOﾎﾃﾙ1F	35.001777	135.732282
04516	阿佐ヶ谷北店	1660001	東京都杉並区阿佐ヶ谷北1-26-4	35.710457	139.636724
04521	能代店	0160186	秋田県能代市下野13-2	40.188763	140.039821
04529	新潟河渡本町店	9500016	新潟県新潟市東区河渡本町22-59	37.9350651	139.1042451
04530	キッザニア東京店	1350061	東京都江東区豊洲2-4-93F-33200ｷｯｻﾞﾆｱ東京内	35.654488	139.794319
04533	カインズ西神南店	6512243	兵庫県神戸市西区井吹台西町1-1ｶｲﾝｽﾞﾎｰﾑ西神南店内	34.695096	135.024391
04535	名取パーク店	9811221	宮城県名取市田高字沢目110番地	38.184906	140.875915
04537	信州中野店	3830045	長野県中野市大字江部1236	36.737648	138.344635
04538	フレスポ高松店	7610312	香川県高松市東山崎町668-1	34.305786	134.095931
04539	モリコロパーク店	4801342	愛知県長久手市茨ヶ廻間1533-1愛･地球博記念公園内	35.178581	137.085912
04540	長崎対馬店	8170021	長崎県対馬市厳原町今屋敷661-3	34.203625	129.289143
04545	市岡みなと通り店	5520012	大阪府大阪市港区市岡1-5-24	34.661662	135.46164
04548	保谷店	2020012	東京都西東京市東町3-5-5	35.74332	139.564669
04550	宜野湾野嵩店	9012203	沖縄県宜野湾市野嵩1-24-3	26.286518	127.781038
04552	ビバホーム加須店	3470033	埼玉県加須市下高柳1-7	36.110038	139.607585
04553	天草本渡店	8630049	熊本県天草市北原町1-37	32.466298	130.185513
04557	北久里浜駅前店	2390807	神奈川県横須賀市根岸町2-31-2	35.253081	139.685288
04561	戸田店	4540962	愛知県名古屋市中川区戸田3-1911	35.137567	136.805812
04562	福井やしろ店	9188026	福井県福井市渕4-1201	36.041916	136.187799
04567	松江西川津店	6900823	島根県松江市西川津町4236	35.487527	133.068559
04568	ポルカ高梁店	7160045	岡山県高梁市中原町1084-1	34.785823	133.612351
04570	目黒大鳥神社前店	1530063	東京都目黒区目黒3-9-3	35.634419	139.706691
04577	鶴川店	1950053	東京都町田市能ヶ谷7-12-5	35.586972	139.48396
04578	西荻窪北口店	1670042	東京都杉並区西荻北3-18-1	35.707439	139.60103
04579	長野ＳＢＣ前店	3800834	長野県長野市大字鶴賀問御所町1271-3	36.6501185	138.1876217
04589	鷺ノ宮店	1650032	東京都中野区鷺宮3-19-9	35.72461	139.638839
04590	イオン秋田中央店	0100029	秋田県秋田市楢山川口境5-11	39.703243	140.111483
04591	鈴鹿磯山店	5100256	三重県鈴鹿市磯山4-9-26	34.815568	136.569088
04593	ゆめタウン新南陽店	7460015	山口県周南市清水2-2-1	34.070569	131.770002
04594	都留文大前店	4020054	山梨県都留市田原2-6-16	35.542222	138.89661
04598	弘明寺店	2320067	神奈川県横浜市南区弘明寺町144	35.425063	139.598384
04612	甲府和戸通り店	4000812	山梨県甲府市和戸町554-2	35.655	138.618479
04613	人吉店	8680021	熊本県人吉市鬼木町787-1	32.223514	130.767377
04622	雪谷大塚店	1450066	東京都大田区南雪谷2-1-6	35.590955	139.68467
04625	大田原店	3292713	栃木県那須塩原市緑1-8-446	36.868859	139.995145
04626	大宮大和田店	3370053	埼玉県さいたま市見沼区大和田町1-834-8	35.928833	139.648557
04627	八幡小嶺店	8071112	福岡県北九州市八幡西区千代1-2-1	33.809098	130.743477
04631	宝塚安倉店	6650825	兵庫県宝塚市安倉西4-635	34.797494	135.371242
04638	行橋店	8240001	福岡県行橋市大字行事5-15-35	33.737709	130.973211
04641	モルエ中島店	0500075	北海道室蘭市中島本町1-4-4	42.357154	141.013546
04643	行徳新浜通り店	2720122	千葉県市川市宝2-1-29ｱﾙｶﾃﾞｨｱ宝101	35.681337	139.926223
04650	富士急ハイランド店	4030017	山梨県富士吉田市新西原5-6-1富士急ﾊｲﾗﾝﾄﾞ内	35.483123	138.785597
04651	奈良三条通り店	6308014	奈良県奈良市四条大路二丁目4-36	34.680587	135.795813
04653	久米川北口店	1890013	東京都東村山市栄町1-3-61TKﾋﾞﾙ1階	35.749621	139.470721
04654	名張店	5180752	三重県名張市蔵持町原出1746	34.633072	136.115049
04655	赤穂店	6780239	兵庫県赤穂市加里屋97-7	34.754521	134.389779
04656	藍住店	7711261	徳島県板野郡藍住町笠木字東野53	34.1346344	134.5097658
04658	清水エンチョー店	4240037	静岡県静岡市清水区袖師町1455	35.030495	138.493737
04662	スピナガーデン大手町店	8030814	福岡県北九州市小倉北区大手町12-4ｽﾋﾟﾅｶﾞｰﾃﾞﾝ大手町1F	33.876476	130.869623
04663	日南店	8892533	宮崎県日南市大字星倉6-8-1	31.622197	131.369869
04664	上柴店	3660052	埼玉県深谷市上柴町西2-22-10	36.182021	139.294624
04667	桂物集女店	6158186	京都府京都市西京区樫原佃18	34.975844	135.695545
04672	天神北店	8100001	福岡県福岡市中央区天神3-16-1	33.592298	130.398421
04673	大分光吉店	8701133	大分県大分市大字宮崎828-1	33.196464	131.608795
04678	七尾ベイモール店	9260852	石川県七尾市小島町1-78	37.053445	136.952085
04683	岡山京山店	7000017	岡山県岡山市北区伊島北町9-15	34.681051	133.903514
04684	市が尾駅前店	2250024	神奈川県横浜市青葉区市ヶ尾町1155-10	35.549689	139.541611
04685	いよ松前店	7913120	愛媛県伊予郡松前町大字筒井850	33.794122	132.703389
04686	トナリエキュートつくば店	3050031	茨城県つくば市吾妻1-6-1	36.085451	140.113615
04689	カインズ堀田店	4670856	愛知県名古屋市瑞穂区新開町2401-1	35.125032	136.918604
04691	みずほほづみ店	5010223	岐阜県瑞穂市穂積1625-1	35.389235	136.695667
04695	金沢杜の里店	9201157	石川県金沢市田上さくら2-117	36.544398	136.689634
04696	りんくうシークル店	5980047	大阪府泉佐野市りんくう往来南3番地	34.405464	135.294349
04697	小倉沼本町店	8000208	福岡県北九州市小倉南区沼本町1-1-45	33.847923	130.941626
04698	下曽根駅前店	8000226	福岡県北九州市小倉南区田原新町3-11-3	33.829731	130.929039
04699	サンリブシティ小倉店	8000255	福岡県北九州市小倉南区上葛原2-14-1	33.840417	130.907481
04701	出水店	8990206	鹿児島県出水市向江町20-3	32.076991	130.3513
04705	エミフルＭＡＳＡＫＩ店	7913120	愛媛県伊予郡松前町大字筒井850ｴﾐﾌﾙMASAKI内	33.794122	132.703389
04706	ゆめタウン広島店	7340007	広島県広島市南区皆実町2-8-17	34.375436	132.466596
04707	岡山花尻店	7010141	岡山県岡山市北区白石東新町2-110	34.65696	133.874807
04708	北上尾店	3620016	埼玉県上尾市原新町17-10	35.986137	139.577355
04709	松本庄内店	3900827	長野県松本市出川1-1-2COMOSHONAI内	36.216129	137.976188
04712	太平通店	4540838	愛知県名古屋市中川区太平通2-21	35.13439	136.869623
04714	イオン長田南店	6530023	兵庫県神戸市長田区東尻池新町1-20	34.657207	135.159046
04716	県立大学店	2380012	神奈川県横須賀市安浦町2-7-8ﾆｯｸﾊｲﾑ横須賀中央第2	35.271626	139.678706
04719	イルフプラザ岡谷店	3940027	長野県岡谷市中央町2-2-1	36.060411	138.048642
04720	武蔵藤沢店	3580011	埼玉県入間市下藤沢5-8-4	35.820906	139.406841
04724	東海中央店	4760013	愛知県東海市中央町7-136	35.021801	136.904887
04727	佐世保広田店	8593223	長崎県佐世保市広田4-4-7	33.125873	129.798914
04733	小倉大田町店	8020015	福岡県北九州市小倉北区大田町7-1	33.879261	130.891305
04734	小倉南インター店	8030278	福岡県北九州市小倉南区徳吉西3-1-32	33.813604	130.855634
04735	たつの店	6794129	兵庫県たつの市龍野町堂本496	34.85862	134.554402
04737	伊豆大仁店	4102316	静岡県伊豆の国市御門52-1	35.018225	138.94424
04739	近鉄藤井寺店	5830026	大阪府藤井寺市春日丘1-8-5	34.569325	135.592107
04745	矢巾店	0283603	岩手県紫波郡矢巾町大字西徳田第5地割63-10	39.609726	141.175315
04751	フレスタ横川店	7330011	広島県広島市西区横川町3-2-36	34.407751	132.45121
04752	久喜インター店	3460029	埼玉県久喜市江面245-5	36.061949	139.658149
04760	王子駅前店	1140002	東京都北区王子1-9-3	35.760092	139.736922
04764	八戸ノ里店	5770801	大阪府東大阪市小阪2-18-17	34.66472	135.585149
04766	京成立石店	1240012	東京都葛飾区立石8-6-18	35.740534	139.847509
04767	赤羽南口店	1150044	東京都北区赤羽南1-6-5	35.775251	139.723853
04768	水戸平須店	3100853	茨城県水戸市平須町1828-20	36.327544	140.434086
04769	ＣｏＣｏＬｏ新潟店	9500086	新潟県新潟市中央区花園1-1-21CoCoLo南館	37.913918	139.06475
04777	藤崎店	8140011	福岡県福岡市早良区高取2-17-44	33.580337	130.350888
04780	オホーツク紋別店	0940007	北海道紋別市落石町2丁目29-1	44.361933	143.335535
04781	ながしま店	5111121	三重県桑名市長島町東殿名1064-1	35.100122	136.70998
04787	宗像店	8113422	福岡県宗像市王丸515-1	33.781136	130.546202
04793	新庄店	9960001	山形県新庄市五日町字清水川1311-1	38.781971	140.323238
04795	今治バイパス店	7991513	愛媛県今治市松木368-1	34.031038	133.001121
04796	大分明野東店	8700151	大分県大分市大字東明野字小丸尾4313-16	33.233368	131.653207
04800	静岡松富店	4200943	静岡県静岡市葵区上伝馬19-48	35.011671	138.372878
04802	北浦和西口店	3300074	埼玉県さいたま市浦和区北浦和4-2-2ｱﾝﾘﾂﾋﾞﾙ1F	35.875087	139.644798
04804	南港ＡＴＣ店	5590034	大阪府大阪市住之江区南港北2-1-10ATCO's北2階	34.63553	135.407812
04807	宜野湾大謝名店	9012225	沖縄県宜野湾市字大謝名245	26.265889	127.735985
04808	稲沢アクロスプラザ店	4928214	愛知県稲沢市大塚南5-1-1	35.238354	136.794952
04810	大津美崎町店	5200841	滋賀県大津市美崎町6-1	34.982518	135.889637
04812	青森柳川店	0380012	青森県青森市柳川2-4-22	40.831327	140.730266
04815	本郷三丁目店	1130033	東京都文京区本郷2-40-13	35.708554	139.759213
04816	大宮ステラタウン店	3310812	埼玉県さいたま市北区宮原町1-854-1ｽﾃﾗﾀｳﾝ1F	35.941388	139.613629
04821	田無店	1880011	東京都西東京市田無町2-9-6	35.729798	139.538238
04822	イオン泉大沢店	9813137	宮城県仙台市泉区大沢1-5-1	38.352439	140.876334
04823	スマーク伊勢崎店	3792224	群馬県伊勢崎市西小保方町368	36.344623	139.232896
04826	ＭＥＧＡドン・キホーテＵＮＹ座間店	2520029	神奈川県座間市入谷西2-57-1	35.484349	139.396818
04827	大垣南店	5030933	岐阜県大垣市外野1-25-1	35.335416	136.611042
04828	東久留米駅店	2030014	東京都東久留米市東本町1-8	35.76226	139.533994
04830	みずほＰａｙＰａｙドーム福岡店	8108660	福岡県福岡市中央区地行浜2-2-2みずほPayPayﾄﾞｰﾑ福岡内	33.5953448	130.3620383
04831	みずほＰａｙＰａｙドーム福岡８Ｇ店	8108660	福岡県福岡市中央区地行浜2-2-2みずほPayPayﾄﾞｰﾑ福岡内	33.5953448	130.3620383
04832	屋久島安房店	8914311	鹿児島県熊毛郡屋久島町安房106番地-1	30.314307	130.655176
04833	ジョイフル本田宇都宮店	3290606	栃木県河内郡上三川町大字磯岡421-1ｼﾞｮｲﾌﾙ本田宇都宮店2階	36.48213	139.910053
04834	韮崎東店	4070015	山梨県韮崎市若宮3-8-13	35.714155	138.453018
04836	アリオ蘇我店	2600835	千葉県千葉市中央区川崎町52-7	35.580832	140.119817
04838	佐世保大野店	8570134	長崎県佐世保市瀬戸越4-6-1	33.206256	129.730011
04840	苫小牧柳町店	0530053	北海道苫小牧市柳町2-6-6	42.657139	141.644582
04841	ビバホーム三郷店	3410050	埼玉県三郷市ﾋﾟｱﾗｼﾃｨ1-1-140	35.843571	139.855775
04844	フジグラン高陽店	7391742	広島県広島市安佐北区亀崎1-1-6ﾌｼﾞｸﾞﾗﾝ高陽1階	34.483854	132.524362
04846	熊野店	5194323	三重県熊野市木本町285番	33.895138	136.101143
04853	愛西町方店	4968014	愛知県愛西市町方町十二城88	35.19085	136.722042
04861	仙台六丁の目店	9840011	宮城県仙台市若林区六丁の目西町3-41	38.2538	140.934255
04862	仙台東口店	9830852	宮城県仙台市宮城野区榴岡5-2-5	38.25927	140.888304
04863	宮城利府店	9810111	宮城県宮城郡利府町加瀬字新前谷地111-1	38.321347	140.990519
04865	ゆめタウン福山店	7200801	広島県福山市入船町3-1-60	34.487056	133.375364
04867	フォレストモール富士河口湖店	4010302	山梨県南都留郡富士河口湖町小立4318-1ﾌｫﾚｽﾄﾓｰﾙ富士河口湖内	35.506091	138.75372
04870	西鉄久留米駅前店	8300033	福岡県久留米市天神町14-1	33.311343	130.5214
04871	札幌琴似店	0630812	北海道札幌市西区琴似2条4-1-5	43.077286	141.303026
04872	富山羽根店	9300864	富山県富山市羽根976	36.68021	137.182433
04873	マツヤスーパー山科三条店	6078088	京都府京都市山科区竹鼻地蔵寺南町9-1ﾏﾂﾔｽｰﾊﾟｰ山科三条店内	34.987334	135.814821
04876	東大島店	1360072	東京都江東区大島9-4-1東大島ﾌｧﾐｰﾙﾊｲﾂ1号棟111号	35.689496	139.833922
04877	東岡山店	7038223	岡山県岡山市中区長利244-7	34.674679	134.001262
04879	クロスガーデン川崎店	2120054	神奈川県川崎市幸区小倉5-19-23	35.540237	139.669161
04882	蒲田西口店	1440051	東京都大田区西蒲田7-47-1第7東動ﾋﾞﾙ1F	35.566762	139.712003
04883	佐久平駅前店	3850029	長野県佐久市佐久平駅南10-6	36.272128	138.466993
04884	鳴門店	7720001	徳島県鳴門市撫養町黒崎字松島105	34.187934	134.597004
04885	中野島店	2140012	神奈川県川崎市多摩区中野島6-24-18	35.629051	139.554531
04886	岩国店	7400021	山口県岩国市室の木町1-2-58	34.169667	132.207142
04887	モラージュ菖蒲店	3460106	埼玉県久喜市菖蒲町菖蒲6005-1	36.073592	139.605621
04889	出雲駅北町店	6930007	島根県出雲市駅北町1	35.361317	132.757673
04890	鹿児島マルヤガーデンズ前店	8920827	鹿児島県鹿児島市中町5-1	31.592515	130.556335
04892	フジグラン広島店	7300044	広島県広島市中区宝町2-1	34.384928	132.463086
04903	アスティ大曽根店	4610021	愛知県名古屋市東区東大曽根町46-6ｱｽﾃｨ大曽根1F	35.188585	136.929281
04905	マリンコープ宮古店	0270038	岩手県宮古市小山田2-2-1	39.632557	141.940912
04906	高岡美幸町店	9330954	富山県高岡市美幸町2-227-1	36.755431	136.997154
04907	ミスターマックス取手店	3020005	茨城県取手市東4-5	35.889883	140.071094
04908	東松山店	3550013	埼玉県東松山市小松原町11-2東松山ｼｮｯﾋﾟﾝｸﾞｾﾝﾀｰ1Fﾌｰﾄﾞｺｰﾄ内	36.045212	139.407057
04910	サミットストア成城店	1570066	東京都世田谷区成城1-3-1	35.642824	139.596734
04918	千歳船橋北口店	1560055	東京都世田谷区船橋1-9-5	35.654409	139.621174
04921	イオン多賀城店	9850845	宮城県多賀城市町前4-1-1	38.284513	141.003879
04923	水道橋西通り店	1010065	東京都千代田区西神田2-5-8	35.69868	139.755047
04926	中環大泉店	5918022	大阪府堺市北区金岡町2838-1	34.558806	135.514572
04928	横浜東口店	2200011	神奈川県横浜市西区高島2-11-2ｽｶｲﾒﾅｰ横浜	35.463156	139.623956
04929	島忠東村山店	1890003	東京都東村山市久米川町1-36	35.767071	139.476354
04930	東所沢駅前店	3590023	埼玉県所沢市東所沢和田2-1-1	35.793844	139.508929
04933	フレスポ鈴鹿店	5130824	三重県鈴鹿市道伯町2516ﾌﾚｽﾎﾟ鈴鹿内	34.857049	136.544307
04934	水守店	4260005	静岡県藤枝市水守1-8-9	34.8804	138.274949
04935	立川南口店	1900022	東京都立川市錦町1-3-20	35.691902	139.417543
04947	ＴＸＧＡ流山おおたかの森店	2700119	千葉県流山市おおたかの森北1-1-1TXｸﾞﾗﾝﾄﾞｱﾍﾞﾆｭｰおおたかの森2F	35.877806	139.927215
04948	ららぽーと磐田店	4380801	静岡県磐田市高見丘1200	34.745358	137.841237
04950	中野南口店	1640001	東京都中野区中野2-29-9	35.705733	139.66936
04952	蒲田東店	1440052	東京都大田区蒲田5-28-4	35.563368	139.721757
04955	市原辰巳台店	2900003	千葉県市原市辰巳台東1-3-2	35.515586	140.152965
04957	大山駅前店	1730023	東京都板橋区大山町5-9	35.748608	139.699924
04959	宮崎橘通店	8800805	宮崎県宮崎市橘通東4-1-1	31.914723	131.424041
04960	富岡バイパス店	3702343	群馬県富岡市七日市257-1	36.259351	138.879695
04962	ウイングベイ小樽店	0470008	北海道小樽市築港11-1	43.18566	141.020067
04964	ＪＲ下関店	7500025	山口県下関市竹崎町4-3-1JR下関駅ﾋﾞﾙ1階	33.951373	130.923962
04966	石和店	4060036	山梨県笛吹市石和町窪中島72-1	35.645636	138.634018
04968	南柏駅前店	2770863	千葉県柏市南柏中央1-5	35.866205	139.946782
04971	一社駅前店	4650095	愛知県名古屋市名東区高社2-116-2	35.17005	136.994917
04972	イオンモール銚子店	2880815	千葉県銚子市三崎町2-2660-1ｲｵﾝﾓｰﾙ銚子店内113区画	35.7150104	140.8124202
04973	本庄朝日町店	3670026	埼玉県本庄市朝日町2-15-3	36.229909	139.19449
04975	酒田南店	9980831	山形県酒田市東両羽町7-1	38.894249	139.850438
04976	サンリブもりつね店	8020972	福岡県北九州市小倉南区守恒1-11-25	33.833881	130.876012
04982	福島矢野目店	9600113	福島県福島市北矢野目字原田58-13	37.793557	140.468967
04984	盛岡南店	0200851	岩手県盛岡市向中野7-14-70	39.677774	141.140363
04985	木更津桜町店	2920821	千葉県木更津市桜町2-7-8	35.370371	139.927008
04988	拝島店	1960004	東京都昭島市緑町2-30-24	35.711965	139.346153
04990	カインズ深江浜店	6580023	兵庫県神戸市東灘区深江浜町59-5	34.713673	135.298502
04992	アルプラザ野洲店	5202331	滋賀県野洲市小篠原1000	35.069247	136.026971
04993	港南台店	2340054	神奈川県横浜市港南区港南台5-5-25ﾊｲﾂ福島	35.373355	139.582168
04996	野田愛宕店	2780037	千葉県野田市野田836-6	35.945813	139.865562
05000	ららぽーと柏の葉店	2770871	千葉県柏市若柴175番地ららぽｰと柏の葉3階ﾌｰﾄﾞｺｰﾄ内	35.892797	139.956483
05001	フォルテ津田沼店	2750028	千葉県習志野市奏の杜2-1-1	35.6873867	140.0128828
05008	姫路広峰店	6700882	兵庫県姫路市広峰1-806-382	34.854271	134.70234
05010	南流山店	2700163	千葉県流山市南流山2-3-1	35.83959	139.900293
05012	郡山新さくら通り店	9630205	福島県郡山市堤2-28-1	37.39755	140.336065
05014	アクロス鉾田店	3111522	茨城県鉾田市塔ｹ崎1017-1ｱｸﾛｽSC内	36.158074	140.504253
05016	京セラドーム大阪店	5500023	大阪府大阪市西区千代崎3-中2-1京ｾﾗﾄﾞｰﾑ大阪内3階	34.672838	135.478821
05017	京セラドーム大阪３１４店	5500023	大阪府大阪市西区千代崎3-中2-1京ｾﾗﾄﾞｰﾑ大阪内3階	34.672838	135.478821
05022	徳島沖浜店	7708053	徳島県徳島市沖浜東3-68	34.052453	134.553665
05024	宮原東口店	3310812	埼玉県さいたま市北区宮原町3-824-1宮原駅ﾋﾞﾙ1F	35.941388	139.613629
05026	松江乃白店	6900045	島根県松江市乃白町501	35.433003	133.049387
05027	ペアナードオダサガ店	2520314	神奈川県相模原市南区南台5-11-19-102	35.520742	139.422487
05028	リブ総社店	7191156	岡山県総社市門田187	34.682183	133.736516
05030	熱海下多賀店	4130102	静岡県熱海市下多賀1377	35.047275	139.07089
05031	北谷店	9040102	沖縄県中頭郡北谷町字伊平189	26.32747	127.76332
05032	アリオ上田店	3860025	長野県上田市天神3-5-1	36.39872	138.246335
05033	京阪守口店	5700056	大阪府守口市寺内町2-2-14ｴﾙ守口ｸﾞﾙﾒｽｸｴｱ14号区画	34.73337	135.564335
05034	鹿沼店	3220043	栃木県鹿沼市万町5000-10	36.557782	139.751312
05036	近鉄生駒店	6300257	奈良県生駒市元町1-3-19	34.69181	135.694565
05038	一之江駅前店	1320024	東京都江戸川区一之江7-35-22一富ﾋﾞﾙﾃﾞｨﾝｸﾞ1階	35.690598	139.881674
05040	ラスパ西大和店	6390218	奈良県北葛城郡上牧町ささゆり台1-1-1	34.566407	135.720199
05042	カインズモール千葉ニュータウン店	2701360	千葉県印西市泉野1-144-6	35.801789	140.129471
05043	首里石嶺店	9030804	沖縄県那覇市首里石嶺町4-242-4	26.227826	127.72816
05044	春日井出川店	4870025	愛知県春日井市出川町1-13	35.265149	137.018735
05045	北越谷店	3430025	埼玉県越谷市大沢3209-1	35.914614	139.78926
05048	リプレ川口店	3320015	埼玉県川口市川口3-2ﾘﾌﾟﾚ川口	35.800942	139.71448
05049	フジグラン北島店	7710204	徳島県板野郡北島町鯛浜字西ﾉ須174	34.115414	134.547167
05051	岡山築港店	7028051	岡山県岡山市南区築港元町14-1	34.604166	133.949431
05054	浜松ザザシティ店	4300933	静岡県浜松市中央区鍛治町100-1	34.704661	137.730312
05055	鹿児島卸本町店	8910123	鹿児島県鹿児島市卸本町6-26	31.515908	130.521764
05056	北千住センター通り店	1200034	東京都足立区千住1-24-5	35.751819	139.802805
05057	北１２条東１５丁目店	0650012	北海道札幌市東区北12条東15丁目21番2	43.077705	141.366751
05058	用賀店	1580097	東京都世田谷区用賀2-41-11	35.627142	139.636684
05059	郡山富久山店	9638071	福島県郡山市富久山町久保田字太郎殿前2-18	37.409849	140.400019
05061	那覇壺屋店	9020065	沖縄県那覇市壺屋2-24-14	26.211972	127.694398
05062	那覇真嘉比店	9020068	沖縄県那覇市真嘉比3-2-14	26.225346	127.703828
05063	池上駅前店	1460082	東京都大田区池上6-2-8	35.573472	139.703577
05065	札幌大通西１４丁目店	0600042	北海道札幌市中央区大通西14丁目1-13	43.059152	141.341931
05066	菊陽店	8691103	熊本県菊池郡菊陽町大字久保田2821-9	32.863285	130.831903
05067	ハンズマン菊陽店	8691101	熊本県菊池郡菊陽町大字津久礼2697-2	32.856563	130.788038
05068	あざみ野店	2250011	神奈川県横浜市青葉区あざみ野2-28-6	35.569675	139.546052
05069	金町南店	1250042	東京都葛飾区金町6-2-1	35.765926	139.869545
05070	島忠小平店	2030032	東京都東久留米市前沢5-33-17	35.743472	139.514933
05071	ルート１７六日町店	9496405	新潟県南魚沼市竹俣64-4	37.049458	138.866401
05076	新座野火止店	3520011	埼玉県新座市野火止6-1-35	35.79826	139.564122
05080	我孫子駅北口店	2701166	千葉県我孫子市我孫子1-10-20	35.875325	140.011166
05084	南越谷駅前店	3430845	埼玉県越谷市南越谷2-2-12	35.874667	139.790128
05085	竹ノ塚店	1210813	東京都足立区竹の塚6-11-1	35.793715	139.796206
05086	巣鴨店	1700002	東京都豊島区巣鴨1-2-2	35.735563	139.736115
05087	浜松高丘エンチョー店	4338117	静岡県浜松市中央区高丘東5-1-26	34.758336	137.711631
05088	郡山安積店	9630111	福島県郡山市安積町荒井字大久保29-1	37.366916	140.353247
05089	菰野店	5101232	三重県三重郡菰野町大字宿野字神明田405-4	35.005612	136.526929
05091	箕面小野原店	5620032	大阪府箕面市小野原西5-12-24	34.831582	135.511444
05092	トキプレミアム・アウトレット店	5095127	岐阜県土岐市土岐ヶ丘1-2	35.339372	137.169863
05093	九州大学伊都キャンパス店	8190395	福岡県福岡市西区元岡744九州大学伊都ｷｬﾝﾊﾟｽ構内	33.595692	130.220058
05094	串木野店	8960055	鹿児島県いちき串木野市照島5064-1	31.709296	130.284626
05096	静岡竜南店	4200804	静岡県静岡市葵区竜南1-16-16	34.999736	138.400121
05097	守山南店	4630025	愛知県名古屋市守山区元郷1-207	35.200819	136.998415
05098	鹿児島与次郎店	8900062	鹿児島県鹿児島市与次郎1-10-28	31.566202	130.562333
05100	長岡京駅前店	6170833	京都府長岡京市神足1-9-20	34.922728	135.701724
05101	小平小川町店	1870032	東京都小平市小川町1-2350	35.729227	139.461495
05102	扇町関西テレビ前店	5300041	大阪府大阪市北区天神橋4丁目7-16扇町ﾋﾞﾙ1階	34.701833	135.511594
05103	各務原店	5040914	岐阜県各務原市三井東町1-118-1	35.392254	136.844395
05105	国道５８号読谷店	9040313	沖縄県中頭郡読谷村字大湾60番地	26.374793	127.749267
05106	仙台中山店	9893203	宮城県仙台市青葉区中山吉成1-4-41	38.29824	140.819453
05107	仙台泉中央店	9813133	宮城県仙台市泉区泉中央2-14-9	38.324447	140.882667
05108	和光市駅前店	3510112	埼玉県和光市丸山台1-4-3ヴｪﾙﾃﾞ和光1F	35.784922	139.616541
05109	気仙沼店	9880053	宮城県気仙沼市田中前3-8-18	38.891372	141.562325
05110	東青梅センタービル店	1980042	東京都青梅市東青梅1-2-5東青梅ｾﾝﾀｰﾋﾞﾙ1-2区画	35.790229	139.276452
05111	ｍｏｚｏワンダーシティ店	4520817	愛知県名古屋市西区二方町40	35.224769	136.880556
05112	カインズ鶴ヶ島店	3502219	埼玉県鶴ヶ島市三ﾂ木新町1-1-13	35.923962	139.389914
05114	ゆめタウン久留米店	8390865	福岡県久留米市新合川1-2-1	33.320881	130.54082
05115	知多朝倉店	4780051	愛知県知多市朝倉町106	34.991387	136.867327
05116	島忠足立小台店	1200046	東京都足立区小台1-17-1	35.756694	139.76587
05117	津南店	5140304	三重県津市雲出本郷町1751-1	34.66101	136.518326
05118	ららぽーとＥＸＰＯＣＩＴＹ店	5650826	大阪府吹田市千里万博公園2-1ららぽｰとEXPOCITY2階20790Qｿﾞｰﾝ	34.810948	135.529718
05119	上田原店	3861102	長野県上田市上田原857-1	36.38894	138.222337
05120	知立西店	4720055	愛知県知立市鳥居1-14-11	35.004784	137.028523
05121	日進竹の山店	4700136	愛知県日進市竹の山4-813	35.162208	137.040856
05123	岐阜三里店	5008358	岐阜県岐阜市六条南2-14-1	35.396963	136.740372
05124	姫路南条店	6700952	兵庫県姫路市南条字宅地65-1	34.811222	134.690023
05125	モリタウン昭島店	1960005	東京都昭島市代官山2-3-1	35.718116	139.3607
05127	スーパービバホーム名古屋南店	4570841	愛知県名古屋市南区豊田5-21-1	35.1054895	136.9100668
05129	カインズ塩尻店	3990703	長野県塩尻市大字広丘高出1628-2	36.130135	137.961977
05130	イオンモール堺鉄砲町店	5900905	大阪府堺市堺区鉄砲町1	34.594923	135.480719
05131	ウェルディ長泉店	4110934	静岡県駿東郡長泉町下長窪1075-33	35.145176	138.888212
05132	ゆめタウン徳山店	7450842	山口県周南市青山町1-18	34.043695	131.817505
05133	Ｒ－１５５刈谷店	4480038	愛知県刈谷市稲場町6-814	35.005384	136.999583
05134	浜北店	4340038	静岡県浜松市浜名区貴布祢3000なゆた浜北1階	34.792885	137.784751
05135	鳥栖バイパス店	8410083	佐賀県鳥栖市古賀町330-1	33.386697	130.501406
05136	甲府駅前店	4000031	山梨県甲府市丸の内1-1-8	35.662429	138.566976
05137	カインズ垂水店	6550861	兵庫県神戸市垂水区下畑町字岩原1423-1	34.652706	135.085531
05138	丹波ゆめタウン店	6693467	兵庫県丹波市氷上町本郷300	35.159238	135.040137
05139	本八幡南口店	2720023	千葉県市川市南八幡4-8	35.717904	139.928654
05140	イーサイト高崎店	3700849	群馬県高崎市八島町222JR高崎駅東口1Fｲｰｻｲﾄ内	36.32207	139.010557
05141	富里店	2860221	千葉県富里市七栄448-17Aｽｸｴｱｰ内	35.741627	140.327245
05142	上永谷店	2330013	神奈川県横浜市港南区丸山台3-21-4	35.398475	139.5683
05143	つかしん店	6610001	兵庫県尼崎市塚口本町4-8-1つかしんひがしまち北館1F	34.757818	135.420754
05144	シーサイド荒尾店	8640041	熊本県荒尾市荒尾116-1	32.979612	130.435408
05145	福岡高田店	8390215	福岡県みやま市高田町濃施213	33.10011	130.458741
05146	イオンモール大牟田店	8360037	福岡県大牟田市岬町3-4ｲｵﾝﾓｰﾙ大牟田38010	33.028585	130.427757
05147	荒川遊園前店	1160011	東京都荒川区西尾久6-30-6我妻ﾋﾞﾙ1F	35.749624	139.759671
05148	三河高浜店	4441332	愛知県高浜市湯山町2-5-13	34.934358	136.995723
05149	横浜桜木町店	2310063	神奈川県横浜市中区花咲町2-61	35.45007	139.629812
05150	島忠草加舎人店	3400032	埼玉県草加市遊馬町2-1	35.819629	139.779532
05151	つくば中央店	3050034	茨城県つくば市小野崎88-7	36.072209	140.108192
05152	石神井公園北口店	1770041	東京都練馬区石神井町4-1-12	35.743753	139.603896
05153	湘南モールフィル店	2510042	神奈川県藤沢市辻堂新町4-1-1	35.339681	139.457683
05154	亀有北口店	1250061	東京都葛飾区亀有3-25-1	35.762584	139.847822
05155	練馬春日町店	1790074	東京都練馬区春日町6-9-8	35.752022	139.641642
05156	札幌豊平店	0620906	北海道札幌市豊平区豊平6条9-1-28	43.048064	141.370355
05157	矢板店	3292135	栃木県矢板市中592-2	36.80014	139.947894
05158	大分駅前店	8700021	大分県大分市府内町1-1-7府内町1丁目ﾋﾞﾙ1階	33.236822	131.609129
05161	金沢八景店	2360027	神奈川県横浜市金沢区瀬戸17-16H&TBldg	35.33257	139.619222
05162	紀ノ川店	6408444	和歌山県和歌山市次郎丸82-1	34.256485	135.149327
05163	岩出店	6496215	和歌山県岩出市中迫69-2	34.262489	135.316193
05164	ベスタ狭山店	3501305	埼玉県狭山市入間川1025	35.854609	139.410559
05165	富士厚原店	4190201	静岡県富士市厚原15-1	35.189509	138.661769
05166	熊本三年坂通店	8600801	熊本県熊本市中央区安政町5-8	32.80151	130.710758
05167	イオンスタイル東戸塚店	2448528	神奈川県横浜市戸塚区品濃町535-1ｲｵﾝｽﾀｲﾙ東戸塚店4階	35.430538	139.561173
05168	調布南口店	1820026	東京都調布市小島町2-56-2	35.651069	139.539785
05169	長岡愛宕店	9400037	新潟県長岡市東栄1-3-24	37.458529	138.862032
05170	カインズ高槻店	5690034	大阪府高槻市大塚町1-9-3	34.821639	135.634252
05173	小山城北店	3230029	栃木県小山市城北5-3-20	36.324114	139.818283
05174	木の葉モール橋本店	8190031	福岡県福岡市西区橋本2-27-2ﾌｰﾄﾞｺｰﾄF07区画	33.558667	130.321675
05175	豊川正岡店	4420823	愛知県豊川市正岡町503-1	34.803886	137.387629
05176	富山上飯野店	9300827	富山県富山市上飯野字北早稲田15-3	36.71245	137.252379
05177	ヒルズウォーク徳重店	4588570	愛知県名古屋市緑区元徳重1-505	35.0944684	136.999556
05178	ゆめタウンはません店	8620965	熊本県熊本市南区田井島1-2-1	32.767112	130.724159
05179	福岡土井店	8130032	福岡県福岡市東区土井1-8-41	33.633994	130.465828
05180	森下店	1350004	東京都江東区森下2-2-1	35.686567	139.802209
05181	イオンタウン名西店	4510015	愛知県名古屋市西区香呑町6-49-1	35.202962	136.895754
05182	平野南港通り店	5470034	大阪府大阪市平野区背戸口5-6-17	34.622875	135.545628
05183	古川南店	9896136	宮城県大崎市古川穂波6-1-13	38.566133	140.942632
05184	島忠仙川店	1820003	東京都調布市若葉町2-1-7	35.657342	139.584956
05185	水戸バイパス見川店	3100913	茨城県水戸市見川町2139-56	36.357781	140.434448
05186	羽後本荘店	0150843	秋田県由利本荘市東梵天180-2	39.380588	140.063119
05187	大曲店	0140044	秋田県大仙市戸蒔字錨12-1	39.452453	140.49322
05188	グランステージ水戸店	3100841	茨城県水戸市酒門町上千束3234-1	36.338519	140.496721
05189	新茂原店	2970007	千葉県茂原市腰当38-1	35.458579	140.300595
05190	仙台愛子店	9893126	宮城県仙台市青葉区落合6-11-7	38.272902	140.788213
05192	鹿児島中山店	8910105	鹿児島県鹿児島市中山町2250-1	31.542316	130.496976
05193	押上店	1310045	東京都墨田区押上1-23-1土居ﾋﾞﾙ1階	35.712099	139.815806
05194	洲原公園店	4480001	愛知県刈谷市井ｹ谷町青木57-1	35.05617	137.050658
05195	手稲前田店	0060812	北海道札幌市手稲区前田二条11-13-20	43.117389	141.254868
05196	イオン横浜新吉田店	2230058	神奈川県横浜市港北区新吉田東8-49-1	35.54064	139.618416
05198	クロスガーデン多摩店	2060033	東京都多摩市落合2-33ｸﾛｽｶﾞｰﾃﾞﾝ多摩1階	35.616881	139.427243
05199	豊見城店	9010235	沖縄県豊見城市名嘉地277-1	26.179713	127.665741
05201	ＪＲ熊本店	8600047	熊本県熊本市西区春日3-15-30肥後よかﾓﾝ市場105区画	32.790424	130.685213
05202	戸田駅前店	3350021	埼玉県戸田市大字新曽676-7	35.817644	139.666741
05204	岐阜島店	5020914	岐阜県岐阜市菅生7-5-23	35.423512	136.72974
05205	徳島羽ノ浦店	7730022	徳島県小松島市大林町字高橋144-7	33.978527	134.617168
05206	浜松初生店	4338112	静岡県浜松市中央区初生町57-3	34.764883	137.727582
05208	掛川緑ヶ丘店	4360021	静岡県掛川市緑ヶ丘1-25-1	34.769387	138.02352
05209	与野西口店	3380002	埼玉県さいたま市中央区下落合1712番地	35.884205	139.631217
05210	なかもず店	5918032	大阪府堺市北区百舌鳥梅町3ｰ24ｰ5	34.551363	135.498386
05211	本巣店	5010471	岐阜県本巣市政田1986	35.440918	136.64165
05212	草加新栄店	3400056	埼玉県草加市新栄1-37-15	35.856738	139.767957
05213	千里丘ミリカ・ヒルズ店	5650815	大阪府吹田市千里丘北1-17	34.801629	135.545651
05214	ゆめタウン徳島店	7711202	徳島県板野郡藍住町字奥野東中須88-1	34.1207359	134.4942181
05216	志段味店	4630001	愛知県名古屋市守山区上志段味特定土地区画整理組合91街区1	35.252105	137.041109
05217	津島崎町店	5140002	三重県津市島崎町302-1	34.732609	136.521966
05218	船橋薬円台店	2740073	千葉県船橋市田喜野井7-16-7	35.701651	140.043038
05219	新潟中条店	9592629	新潟県胎内市中条3119-1	38.051399	139.410072
05220	盛岡マッハランド店	0200125	岩手県盛岡市上堂1-2-50	39.727838	141.124224
05221	稲沢天池店	4928274	愛知県稲沢市天池光田町94-3	35.252979	136.775027
05222	蕨西口店	3350004	埼玉県蕨市中央1-2-6	35.822972	139.686157
05223	イオンスタイル仙台卸町店	9840015	宮城県仙台市若林区卸町1丁目1-1	38.256207	140.925676
05224	鹿屋バイパス店	8930065	鹿児島県鹿屋市郷之原町11934-1	31.394749	130.819201
05225	西心斎橋店	5420086	大阪府大阪市中央区西心斎橋1-9-28	34.671919	135.49826
05226	守谷店	3020128	茨城県守谷市けやき台5-1-7	35.935089	139.995611
05227	ビバホーム柳津店	5016123	岐阜県岐阜市柳津町流通ｾﾝﾀｰ1-52	35.36448	136.71081
05229	府中フォーリス店	1830023	東京都府中市宮町1-41-1ﾌｫﾚｽﾄｻｲﾄﾞﾋﾞﾙ1階	35.66918	139.480586
05231	福重店	8190041	福岡県福岡市西区拾六町1-25-4	33.566249	130.307172
05232	熊本飛田バイパス店	8615517	熊本県熊本市北区鶴羽田1-14-18	32.861284	130.725444
05233	東急ストア下田店	4150035	静岡県下田市東本郷1-2-1	34.68233	138.945937
05234	柏崎店	9450031	新潟県柏崎市新田畑1-8	37.374112	138.583148
05236	武雄店	8430024	佐賀県武雄市武雄町大字富岡277番地	33.199903	130.019471
05237	新瑞店	4670066	愛知県名古屋市瑞穂区洲山町2-31	35.118929	136.938543
05238	浜松若林店	4328051	静岡県浜松市中央区若林町1157-1	34.688852	137.703114
05239	岡山けやき通り店	7038255	岡山県岡山市中区東川原156-1	34.675891	133.946303
05240	東広島店	7390025	広島県東広島市西条中央3-4-7	34.417546	132.739088
05241	筑紫野ヴィレッジ店	8180025	福岡県筑紫野市大字筑紫116-1	33.459957	130.54476
05242	八千代緑が丘店	2760049	千葉県八千代市緑が丘1-1-1	35.728681	140.076753
05243	泡瀬店	9042172	沖縄県沖縄市泡瀬4-4-2	26.318437	127.832187
05244	福岡穂波店	8200084	福岡県飯塚市椿192-1	33.618418	130.65949
05245	東武ストア新柏店	2770084	千葉県柏市新柏1-4-1東武ｽﾄｱ新柏店内	35.841124	139.973058
05246	田川イカリ店	8250001	福岡県田川市大字伊加利2011-26	33.623247	130.826894
05247	土浦真鍋店	3000051	茨城県土浦市真鍋5-8-11	36.095843	140.198924
05248	ニトリモール相模原店	2520331	神奈川県相模原市南区大野台6-1-1ﾆﾄﾘﾓｰﾙ相模原3階	35.550031	139.406791
05249	那覇新都心店	9000004	沖縄県那覇市字銘苅2-1-22	26.233197	127.69929
05250	帯広大通り店	0800010	北海道帯広市大通南23丁目2	42.912173	143.206462
05251	ＪＲ灘店	6570846	兵庫県神戸市灘区岩屋北町7-3-1	34.705261	135.218609
05252	黒磯店	3250025	栃木県那須塩原市下厚崎265-85	36.952096	140.047115
05253	ニトリモール東大阪店	5780947	大阪府東大阪市西岩田2-3-25	34.666696	135.599576
05254	白河昭和町店	9610971	福島県白河市昭和町222-1	37.130572	140.200784
05256	イオンモール与野店	3380004	埼玉県さいたま市中央区本町西5-2-9	35.887242	139.616684
05257	カインズ朝霞店	3510005	埼玉県朝霞市根岸台3-20-1	35.801734	139.606662
05258	岡山下中野店	7000945	岡山県岡山市南区新保1615-13	34.633176	133.911388
05259	おもちゃのまち店	3210201	栃木県下都賀郡壬生町大字安塚1213-7	36.482918	139.833546
05260	えもり店	4838042	愛知県江南市江森町東229	35.344919	136.891326
05261	宇都宮若松原店	3210153	栃木県宇都宮市北若松原1-13-16	36.506694	139.864894
05262	千葉小倉町店	2640007	千葉県千葉市若葉区小倉町871-18	35.621064	140.173304
05263	ららぽーと愛知東郷店	4700162	愛知県愛知郡東郷町東郷中央土地区画整理事業62街区13	35.091437	137.041462
05264	武蔵小金井南口店	1840004	東京都小金井市本町1-19-10	35.703506	139.506729
05265	錦糸公園店	1300012	東京都墨田区太平4-8-2	35.700702	139.813304
05266	伊賀上野店	5180820	三重県伊賀市平野西町54	34.771773	136.135901
05267	豊田若園店	4730914	愛知県豊田市若林東町上外根82-2	35.024168	137.103602
05268	西脇店	6770054	兵庫県西脇市野村町1796-52-1	34.97509	134.96519
05269	茅野店	3910001	長野県茅野市ちの2767-5	35.997534	138.145299
05270	弥生台店	2450008	神奈川県横浜市泉区弥生台25-1	35.426331	139.506749
05271	宇多津店	7690202	香川県綾歌郡宇多津町浜ﾆ番丁14-1	34.308201	133.810839
05272	西友二俣川店	2410821	神奈川県横浜市旭区二俣川2-52-1	35.463478	139.531416
05273	伊那春近店	3994431	長野県伊那市西春近2686-1	35.818619	137.916221
05274	富山天正寺店	9300952	富山県富山市町村114	36.679768	137.257997
05275	小平駅前店	1870041	東京都小平市美園町1-4-10	35.73781	139.489834
05276	成田ニュータウン店	2860041	千葉県成田市飯田町158-16	35.766124	140.301304
05278	姫路広畑店	6711151	兵庫県姫路市広畑区早瀬町1-15-1	34.805957	134.624367
05279	アリオ北砂店	1360073	東京都江東区北砂2-17-1	35.681552	139.831209
05281	梅ヶ丘駅前店	1540022	東京都世田谷区梅丘1-25-7	35.652291	139.653616
05282	谷保駅前店	1860003	東京都国立市富士見台1-17-15	35.685776	139.440073
05283	烏山店	1570062	東京都世田谷区南烏山6-22-18ﾍﾞﾙｶﾝﾄ南烏山1階	35.669054	139.604216
05284	札幌西野店	0630033	北海道札幌市西区西野3条3-2-2	43.0771	141.276417
05285	ひたちなか笹野店	3120018	茨城県ひたちなか市笹野町2-3-1	36.396764	140.544561
05286	新静岡セノバ店	4200839	静岡県静岡市葵区鷹匠1-1-1	34.977697	138.389041
05287	川中島店	3812221	長野県長野市川中島町御厨2408-1	36.593621	138.162431
05288	佐久穂町店	3840613	長野県南佐久郡佐久穂町大字高野町725-1	36.160383	138.48356
05289	千駄木店	1130022	東京都文京区千駄木2-21-1	35.726487	139.760412
05290	ららぽーと沼津店	4100302	静岡県沼津市東椎路301-3	35.126535	138.833023
05291	亀田店	9500152	新潟県新潟市江南区亀田緑町3-1-51	37.87155	139.101529
05292	長岡古正寺店	9402103	新潟県長岡市古正寺町1-39-1	37.45739	138.819256
05294	栃木店	3280075	栃木県栃木市箱森町36-10	36.389711	139.722998
05295	新鎌ケ谷店	2730107	千葉県鎌ヶ谷市新鎌ヶ谷3-16-12	35.780874	140.001786
05296	福岡新宮中央店	8110117	福岡県糟屋郡新宮町上府668-1	33.711158	130.45641
05297	中島新町店	4540932	愛知県名古屋市中川区中島新町4-1507	35.126849	136.850898
05298	東武ストア東武動物公園駅前店	3450821	埼玉県南埼玉郡宮代町中央1-2-1	36.0238898	139.7240989
05299	多摩下柚木店	1920372	東京都八王子市下柚木2-9-7	35.625538	139.378301
05300	一関店	0210055	岩手県一関市山目字泥田64-1	38.936969	141.112471
05301	厚別中央店	0040053	北海道札幌市厚別区厚別中央3条6-1-7	43.039109	141.464911
05302	川沿ソシア店	0050805	北海道札幌市南区川沿五条2-3-10	42.992823	141.331916
05303	泉北光明池店	5900143	大阪府堺市南区新檜尾台2丁1-1	34.479709	135.476024
05304	秦野店	2570032	神奈川県秦野市河原町8-1	35.36846	139.23575
05305	ミスターマックス糸島店	8191102	福岡県糸島市高田4-16-1B棟101	33.56998	130.235383
05306	イトーヨーカドー川崎店	2100843	神奈川県川崎市川崎区小田栄2-2-1	35.514742	139.707145
05307	広島アルパーク店	7338624	広島県広島市西区草津新町2-26-1	34.3883	132.4272
05308	伊勢一之木店	5160071	三重県伊勢市一之木5-2-13	34.497629	136.705995
05309	八王子みなみ野店	1920916	東京都八王子市みなみ野1-7-3ﾌﾚｽﾎﾟ八王子みなみ野	35.630095	139.324645
05310	鶴岡店	9970003	山形県鶴岡市文下字広野20-1	38.765641	139.848119
05311	オークビレッジかみす店	3140144	茨城県神栖市大野原4-8-67-2	35.892092	140.643439
05312	本山四谷通店	4640819	愛知県名古屋市千種区四谷通2-14-1	35.160592	136.964661
05313	下井草駅店	1670022	東京都杉並区下井草2-44-10	35.720042	139.623523
05314	ららぽーと門真店	5718620	大阪府門真市松生町1-11	34.7425	135.5828
05315	イオン板橋店	1750083	東京都板橋区徳丸2-6-13F	35.775951	139.659098
05316	弘前城東店	0368084	青森県弘前市大字高田3-1-10	40.598087	140.506014
05317	東海村店	3191116	茨城県那珂郡東海村舟石川駅西3-13-25	36.466362	140.563767
05318	アスティ一宮店	4910858	愛知県一宮市栄3-1-1ｱｽﾃｨ一宮内	35.303339	136.798337
05319	千林大宮店	5350002	大阪府大阪市旭区大宮2-27-17	34.725469	135.547291
05320	黒瀬店	7392613	広島県東広島市黒瀬町楢原661-1	34.326746	132.668358
05321	高鍋店	8840002	宮崎県児湯郡高鍋町大字北高鍋2425-1	32.129098	131.515779
05322	土気駅前店	2670066	千葉県千葉市緑区あすみが丘1-20-1	35.521844	140.265601
05323	橋本３丁目店	2520143	神奈川県相模原市緑区橋本3-3-1SING橋本1F	35.597996	139.342359
05324	川越笠幡店	3501175	埼玉県川越市大字笠幡4525-1	35.908406	139.402353
05325	明石二見店	6740092	兵庫県明石市二見町東二見837-6	34.702866	134.887818
05326	浜田山駅前店	1680065	東京都杉並区浜田山3-31-2	35.681133	139.63025
05327	いずみ中央駅店	2450023	神奈川県横浜市泉区和泉中央南5-4-13	35.412699	139.493477
05328	渋川店	3770008	群馬県渋川市渋川1904-36	36.49741	138.969055
05329	高槻今城店	5691135	大阪府高槻市今城町18-1	34.846021	135.599512
05330	多治見上野町店	5070027	岐阜県多治見市上野町5-98	35.339815	137.125469
05331	イオン新浦安店	2790012	千葉県浦安市入船1-4-1ｲｵﾝ新浦安1F	35.649426	139.916221
05332	ルート２６号泉佐野店	5980013	大阪府泉佐野市中町3-6583	34.40083	135.315653
05333	いわき内郷店	9738402	福島県いわき市内郷御厩町前田114	37.045923	140.874671
05334	フォルテ横浜川和町店	2240057	神奈川県横浜市都筑区川和町1403	35.530445	139.549734
05335	安中バイパス店	3790133	群馬県安中市原市336	36.316167	138.866152
05336	南相馬店	9750032	福島県南相馬市原町区桜井町1-147-1	37.639081	140.978165
05337	堀切菖蒲園店	1240006	東京都葛飾区堀切5-1-3	35.748916	139.830268
05338	洗足池店	1450064	東京都大田区上池台2-30-5	35.596925	139.697587
05339	イオンモール川口前川店	3330842	埼玉県川口市前川1-1-11	35.836762	139.710802
05340	広本町店	7370125	広島県呉市広本町3-14-30	34.233961	132.620926
05342	イオンモール名取店	9811294	宮城県名取市杜せきのした5-3-1	38.16382753	140.8958344
05343	小松大領店	9230854	石川県小松市大領町ﾛ199	36.387785	136.451686
05344	種子島店	8913116	鹿児島県西之表市鴨女町217-3	30.724402	130.995697
05345	あべのキューズモール店	5450052	大阪府大阪市阿倍野区阿倍野筋1-6-13階Q-FC-08	34.641897	135.511538
05346	東刈谷店	4480802	愛知県刈谷市末広町3-1-8	34.973476	137.044051
05347	ＪＲ奈良店	6308122	奈良県奈良市三条本町1-1ﾋﾞｴﾗ奈良	34.680551	135.818289
05348	厚木とびお店	2430204	神奈川県厚木市鳶尾5-14-9	35.492187	139.328199
05349	エトレ豊中店	5600026	大阪府豊中市玉井町1-1-1-205	34.787391	135.457171
05350	摂津本山店	6580081	兵庫県神戸市東灘区田中町1-8-23	34.723421	135.272534
05351	トライアル橿原店	6340842	奈良県橿原市豊田町252-1	34.524101	135.78533
05352	甲州塩山店	4040036	山梨県甲州市塩山熊野58-1	35.690975	138.728532
05353	イオンスタイル成田店	2860029	千葉県成田市ｳｲﾝｸﾞ土屋24番地	35.794723	140.322979
05354	倉敷中庄店	7100001	岡山県倉敷市三田6-1	34.631252	133.79731
05355	諫早久山台店	8540067	長崎県諫早市久山台11	32.825241	129.992797
05357	日立多賀店	3160001	茨城県日立市諏訪町1-1-35	36.571427	140.619772
05358	中板橋駅前店	1730021	東京都板橋区弥生町32-8白扇ﾋﾞﾙ	35.753955	139.693025
05359	八戸石堂店	0391103	青森県八戸市長苗代2-16-21	40.521726	141.471348
05360	京都二条駅前店	6048418	京都府京都市中京区西ﾉ京東栂尾町3JR二条駅NKﾋﾞﾙ1階	35.005964	135.744759
05361	近鉄奈良店	6308216	奈良県奈良市東向南町10-2	34.682822	135.828834
05362	湊高台店	0310823	青森県八戸市湊高台2-1-1	40.507345	141.540853
05363	旭川東光店	0788348	北海道旭川市東光8条1丁目226	43.747463	142.406149
05364	アピタ高蔵寺店	4870011	愛知県春日井市中央台2-5	35.284603	137.051269
05365	仙台定禅寺通り店	9800803	宮城県仙台市青葉区国分町3-4-5ｸﾗｲｽﾋﾞﾙ1F	38.264074	140.868963
05366	新潟黒埼店	9501101	新潟県新潟市西区山田2307	37.871638	139.012934
05367	新潟万代シティ店	9500088	新潟県新潟市中央区万代1-5-6	37.918425	139.0582
05368	新潟亀貝店	9502033	新潟県新潟市西区亀貝1468	37.86805	138.982183
05369	フォレオせんだい宮の杜店	9830833	宮城県仙台市宮城野区東仙台4-14-8C-3棟	38.27752	140.914545
05370	中央林間北口店	2420007	神奈川県大和市中央林間3-3-8	35.506711	139.443539
05371	アリオ市原店	2900050	千葉県市原市更級4-3-2ｱﾘｵ市原店2階ﾋﾙﾄｯﾌﾟｷｯﾁﾝ内	35.507823	140.099956
05372	宮崎台店	2160033	神奈川県川崎市宮前区宮崎3-13-12	35.589684	139.589809
05373	博多デイトスアネックス店	8120012	福岡県福岡市博多区博多駅中央街1-1ﾃﾞｲﾄｽｱﾈｯｸｽ2階	33.589388	130.419404
05374	沼田栄町店	3780014	群馬県沼田市栄町228-5	36.636157	139.04912
05375	茗荷谷店	1120002	東京都文京区小石川5-4-3	35.713868	139.746459
05376	ＢＩＧＨＯＰ印西店	2701335	千葉県印西市原1-2ﾋﾞｯｸﾞﾎｯﾌﾟｶﾞｰﾃﾞﾝﾓｰﾙ印西1階	35.800865	140.163701
05377	札幌伏見店	0640916	北海道札幌市中央区南16条西19丁目1-6	43.0381	141.343161
05378	一宮開明店	4910201	愛知県一宮市奥町字田畑18	35.327097	136.760786
05379	イオン鳥取店	6800847	鳥取県鳥取市天神町1	35.492015	134.22083
05380	地下鉄赤塚店	1790073	東京都練馬区田柄2-51-14	35.762176	139.640381
05381	ゆめモール合志店	8611101	熊本県合志市合生東沖野4048-2	32.907522	130.76547
05382	ＤＣＭ坂店	7314312	広島県安芸郡坂町平成ヶ浜2-1-48	34.342713	132.51047
05383	御殿場店	4120026	静岡県御殿場市東田中1-5-33	35.304812	138.94281
05384	浜松三方原店	4338105	静岡県浜松市中央区三方原町781-1	34.78002	137.712795
05385	モザイクモール港北店	2240003	神奈川県横浜市都筑区中川中央1-31-1-2	35.551593	139.577535
05386	島忠大和店	2420014	神奈川県大和市上和田2670	35.451648	139.471964
05387	ゆめタウン益田店	6980041	島根県益田市高津7-18-21	34.686074	131.817399
05388	マーヴ北綾瀬リエッタ店	1200006	東京都足立区谷中二丁目6-30	35.777798	139.833599
05389	鳴子店	4580011	愛知県名古屋市緑区相川3-73	35.100489	136.971945
05390	青森佃店	0300963	青森県青森市中佃2-19-25	40.818018	140.781734
05391	弘前駅前店	0368002	青森県弘前市大字駅前2-10-7	40.601085	140.481668
05393	神戸伊川谷店	6512124	兵庫県神戸市西区伊川谷町潤和713-1	34.665847	135.001097
05394	アスティ岐阜店	5008856	岐阜県岐阜市橋本町一丁目10-1	35.41065	136.752726
05395	福井春江店	9190416	福井県坂井市春江町江留下宇和江50	36.126718	136.220422
05396	中野坂上店	1640011	東京都中野区中央2-2-31	35.699356	139.674315
05397	日立田尻店	3191416	茨城県日立市田尻町5-13-4	36.626533	140.675227
05398	三軒茶屋店	1540024	東京都世田谷区三軒茶屋1-41-9	35.641831	139.66854
05399	ゆめタウン呉店	7370029	広島県呉市宝町5-10ゆめﾀｳﾝ呉店3階ﾌｰﾄﾞｺｰﾄ内	34.243718	132.556015
05400	美野島店	8120017	福岡県福岡市博多区美野島2-5-6	33.5781	130.418824
05401	イオンモールナゴヤドーム前店	4610048	愛知県名古屋市東区矢田南4-102-3ｲｵﾝﾓｰﾙﾅｺﾞﾔﾄﾞｰﾑ前店2階	35.186551	136.942214
05402	サンエーしおざきシティ店	9010364	沖縄県糸満市潮崎町2-2	26.120675	127.664787
05403	ゼビオ月寒店	0620053	北海道札幌市豊平区月寒東三条11-1-10	43.029072	141.411086
05404	福島鎌田店	9600102	福島県福島市鎌田字一里塚11-1	37.795973	140.493386
05405	東久留米滝山店	2030033	東京都東久留米市滝山7-20-9	35.746142	139.505803
05406	西船橋北口店	2730025	千葉県船橋市印内町497-4三須ﾋﾞﾙ1F	35.705297	139.958779
05407	川越西口店	3501124	埼玉県川越市新宿町1-17-1	35.899321	139.481194
05408	平和台店	1790085	東京都練馬区早宮2-17-50	35.75213	139.654201
05409	田崎店	8600068	熊本県熊本市西区上代2-1-7	32.779459	130.666033
05410	武蔵中原店	2110053	神奈川県川崎市中原区上小田中6-19-6	35.585135	139.6391
05411	亀戸店	1360071	東京都江東区亀戸5-15-4	35.698907	139.829848
05412	ビアレ横浜並木店	2360005	神奈川県横浜市金沢区並木2-13-7	35.365081	139.639822
05414	市川南店	2720033	千葉県市川市市川南1-3-7	35.72583	139.904408
05415	いわき湯本店	9728312	福島県いわき市常磐下船尾町古内289-4	36.990499	140.87302
05416	高円寺パル店	1660003	東京都杉並区高円寺南3-45-15ﾚｾﾞﾙ高円寺1階	35.701795	139.653602
05417	春光ロック店	0700871	北海道旭川市春光一条7-1-5	43.799328	142.377613
05418	福知山東野パーク店	6200807	京都府福知山市字土東野町1117-594	35.2969955	135.1648649
05419	ＪＲ香椎駅前店	8130013	福岡県福岡市東区香椎駅前1-13-2	33.661352	130.4417
05420	キセラ川西店	6660017	兵庫県川西市火打1-11-33	34.83594	135.41515
05421	彦根日夏店	5220047	滋賀県彦根市日夏町3685-1	35.237128	136.216562
05422	アルプラザ長浜店	5260845	滋賀県長浜市小堀町450ｱﾙﾌﾟﾗｻﾞ長浜1階	35.387174	136.287731
05423	大津堅田店	5200241	滋賀県大津市今堅田2-13-29	35.123017	135.924945
05424	グラン８モール八街店	2891107	千葉県八街市八街は11-1	35.6981886	140.3043939
05425	住吉店	1350002	東京都江東区住吉2-23-11精進ﾋﾞﾙ	35.688195	139.813653
05426	ヨークフーズ中浦和店	3380832	埼玉県さいたま市桜区西堀4-3-23	35.856057	139.628968
05427	稲毛山王町店	2630002	千葉県千葉市稲毛区山王町310-1	35.662509	140.141317
05428	鳳西町店	5938326	大阪府堺市西区鳳西町2-18-3	34.52947	135.450945
05429	茅ヶ崎北口店	2530043	神奈川県茅ヶ崎市元町4-4	35.332799	139.408715
05430	合羽橋店	1110036	東京都台東区松が谷1-1-1	35.714938	139.786946
05431	高尾南口店	1930845	東京都八王子市初沢町1231-35KO52TAKAO	35.631509	139.275317
05432	足利鹿島店	3260844	栃木県足利市鹿島町59	36.345384	139.405897
05433	東浦店	4702102	愛知県知多郡東浦町大字緒川字平成8	34.978746	136.944579
05434	寝屋川早子町店	5720837	大阪府寝屋川市早子町9-17	34.763487	135.622609
05435	近江八幡店	5230896	滋賀県近江八幡市鷹飼町北4-3-2	35.12809	136.106243
05436	マックスバリュ幕張店	2620032	千葉県千葉市花見川区幕張町5-417-15	35.663024	140.055156
05437	稲毛店	2630043	千葉県千葉市稲毛区小仲台7-1-8	35.640201	140.096115
05438	浮間舟渡駅前店	1150051	東京都北区浮間4-32-221階B	35.788715	139.698464
05439	石巻大街道店	9860855	宮城県石巻市大街道東1-3-66	38.426692	141.286317
05440	東十条店	1140001	東京都北区東十条3-14-12ﾖｼｶｲﾋﾞﾙ1階	35.766233	139.728527
05441	三鷹北口店	1800006	東京都武蔵野市中町1-6-4三鷹山田ﾋﾞﾙ1F	35.706764	139.565014
05442	ウィング上大岡店	2330002	神奈川県横浜市港南区上大岡西1-6-1	35.405826	139.595687
05443	千鳥町店	1460083	東京都大田区千鳥1-21-1	35.571324	139.692203
05444	クロス向ヶ丘店	2140014	神奈川県川崎市多摩区登戸2779-1	35.620315	139.562041
05445	香芝真美ケ丘店	6390223	奈良県香芝市真美ｹ丘5-5-20	34.541334	135.722673
05446	御影クラッセ店	6580054	兵庫県神戸市東灘区御影中町3丁目2-1	34.717127	135.2541
05447	千葉中央店	2600014	千葉県千葉市中央区本千葉町15-1	35.606757	140.118709
05448	町田金森店	1940015	東京都町田市金森東4-42-23	35.531923	139.464099
05449	阪急茨木市駅東口店	5670829	大阪府茨木市双葉町8-1奥村ﾋﾞﾙ102号室	34.816073	135.577609
05450	旭川永山環状通り店	0798414	北海道旭川市永山四条4丁目10-11	43.800938	142.423124
05451	垂水駅北口店	6550029	兵庫県神戸市垂水区天ﾉ下町7-5	34.630805	135.052273
05452	月島店	1040052	東京都中央区月島1-27-9	35.663238	139.781474
05453	京王リトナード永山店	2060025	東京都多摩市永山1-18-1京王ﾘﾄﾅｰﾄﾞ永山2階	35.620955	139.446579
05454	秋川店	1970804	東京都あきる野市秋川4-14-7	35.731718	139.288458
05455	十日市場駅前店	2260025	神奈川県横浜市緑区十日市場町805-3	35.524084	139.513854
05456	阪急夙川駅前店	6620051	兵庫県西宮市羽衣町7-30夙川ｸﾞﾘｰﾝﾀｳﾝ103	34.740722	135.327208
05457	箕面牧落店	5620004	大阪府箕面市牧落3-14-39	34.822273	135.47186
05458	浜松志都呂店	4328069	静岡県浜松市中央区志都呂1-40-3	34.699623	137.654666
05459	トヨタ元町バイパス店	4710036	愛知県豊田市広久手町5-28-1	35.083007	137.131828
05460	フォレスタ六甲店	6570027	兵庫県神戸市灘区永手町4-2-1	34.716149	135.23938
05461	ウィングキッチン京急鶴見店	2300051	神奈川県横浜市鶴見区鶴見中央1-30-22ｳｨﾝｸﾞｷｯﾁﾝ京急鶴見1F201	35.508415	139.680155
05462	マーヴ浦安店	2790002	千葉県浦安市北栄1-12-13	35.665569	139.89911
05463	青森柳川店	0380012	青森県青森市柳川2-4-22	40.831327	140.730266
05464	横浜天王町店	2400003	神奈川県横浜市保土ヶ谷区天王町二丁目46-1ヴｨﾗﾃﾞｽﾃKOSUGE1階	35.45621	139.602022
05465	伊北インター店	3994601	長野県上伊那郡箕輪町中箕輪1439-1	35.929543	137.952531
05466	札幌琴似店	0630812	北海道札幌市西区琴似2条4-1-5	43.077286	141.303026
05467	玉名店	8650065	熊本県玉名市築地100-1	32.934417	130.532131
05468	八代あまがえ通り店	8660893	熊本県八代市海士江町3351-1	32.527204	130.624471
05470	市川大野店	2720804	千葉県市川市南大野1-47-5	35.745772	139.952961
08001	秋津店	1890001	東京都東村山市秋津町5-9-1ｼｬｲﾝﾈｽﾄ1階	35.775096	139.487774
08002	草加店	3400015	埼玉県草加市高砂2-7-1ｲﾄｰﾖｰｶﾄﾞｰB1F	35.827015	139.805426
08005	せんげん台駅前店	3430041	埼玉県越谷市千間台西1-1-1	35.933045	139.766382
08016	イオンモール幕張新都心店	2618535	千葉県千葉市美浜区豊砂1-5ｲｵﾝﾓｰﾙ幕張新都心D棟3階ごちそうﾊﾟｰｸ内	35.653865	140.03158
08017	東急プラザ新長田店	6530038	兵庫県神戸市長田区若松町5-5-1	34.655519	135.144195
08022	フレンドタウン日野店	5291601	滋賀県蒲生郡日野町大字松尾911	35.01677	136.242337
08026	羽曳野西浦店	5830861	大阪府羽曳野市西浦1085-1	34.545016	135.601981
08031	イオンモール堺北花田店	5918008	大阪府堺市北区東浅香山町4-1-12	34.584309	135.509153
08034	イズミヤ堀川丸太町店	6028142	京都府京都市上京区下堀川町146ﾃﾞｲﾘｰｶﾅｰﾄｲｽﾞﾐﾔ堀川丸太町店2F	35.016575	135.751477
08035	フレンドタウン深江橋店	5360022	大阪府大阪市城東区永田3-2-6	34.684262	135.556218
08036	近鉄東寺駅前店	6018415	京都府京都市南区西九条西蔵王町1-3	34.98072	135.752207
08037	イオンタウン釜石店	0260011	岩手県釜石市港町2-1-1	39.269257	141.886534
08040	京セラドーム大阪５１１Ｒ店	5500023	大阪府大阪市西区千代崎3ｰ中2-1京ｾﾗﾄﾞｰﾑ大阪内5階	34.672838	135.478821
08041	イオンモール木曽川店	4930001	愛知県一宮市木曽川町黒田字南八ﾂｹ池25-1	35.346401	136.780284
08042	長堀橋店	5420083	大阪府大阪市中央区東心斎橋1-1-10	34.67222	135.503878
08047	ＪＲ福島駅前店	5530003	大阪府大阪市福島区福島7-11-52	34.696087	135.485928
08052	横浜中山店	2260014	神奈川県横浜市緑区台村町225	35.507398	139.530875
08056	七重浜店	0490111	北海道北斗市七重浜1-4-49	41.819085	140.704939
08057	大和ハウス　プレミストドーム店	0620045	北海道札幌市豊平区羊ｹ丘1-3大和ﾊｳｽﾌﾟﾚﾐｽﾄﾄﾞｰﾑ内	42.992361	141.402655
08058	大和ハウス　プレミストドームＣ１０店	0620045	北海道札幌市豊平区羊ｹ丘1-3大和ﾊｳｽﾌﾟﾚﾐｽﾄﾄﾞｰﾑ内	42.992361	141.402655
08059	大和ハウス　プレミストドームＣ１店	0620045	北海道札幌市豊平区羊ｹ丘1-3大和ﾊｳｽﾌﾟﾚﾐｽﾄﾄﾞｰﾑ内	42.992361	141.402655
08060	札幌北２４条店	0010024	北海道札幌市北区北24条西3-1-10	43.090418	141.333597
08062	北大正門前店	0600809	北海道札幌市北区北九条西3丁目9-1	43.071916	141.35002
08063	札幌四番街店	0600063	北海道札幌市中央区南3条西4-1	43.055602	141.343889
08064	函館本通一丁目店	0410851	北海道函館市本通1-25-7	41.798163	140.770813
08065	新千歳空港店	0660012	北海道千歳市美々新千歳空港ﾀｰﾐﾅﾙﾋﾞﾙ	42.787815	141.69029
08073	イオンモール旭川駅前店	0700030	北海道旭川市宮下通り7-2-5	43.763531	142.360827
08074	東京タワー店	1050011	東京都港区芝公園4-2-8	35.65767	139.749802
08076	五条七本松店	6008813	京都府京都市下京区中堂寺南町105ｺﾞｰﾙﾄﾞﾊｲﾂ五条105	34.995147	135.740312
08078	西川口東口店	3320034	埼玉県川口市並木2-2-7	35.816568	139.708637
08079	烏丸御池店	6048271	京都府京都市中京区釜座通御池下る津軽町767ｲｰｸﾞﾙｺｰﾄ烏丸御池ﾙ･ｼｪﾙ	35.010369	135.755893
08085	伊北インター店	3994601	長野県上伊那郡箕輪町大字中箕輪1439-1	35.929543	137.952531
08086	松本駅ビルミドリ店	3900815	長野県松本市深志1-1-1	36.229405	137.969994
08089	川崎アゼリア店	2100007	神奈川県川崎市川崎区駅前本町26-2	35.53115	139.698574
08090	札幌北野店	0040863	北海道札幌市清田区北野3条2-13-54	43.011625	141.437308
08093	大船渡店	0220006	岩手県大船渡市立根町字岩脇17-4	39.115686	141.719956
08095	イオンモール浦和美園店	3368760	埼玉県さいたま市緑区美園5-50-1	35.890861	139.73128
08106	イオンモール京都桂川店	6018601	京都府京都市南区久世高田町376-1	34.9622	135.7197
08107	イオンレイクタウン　ｍｏｒｉ店	3430828	埼玉県越谷市ﾚｲｸﾀｳﾝ3-1-1	35.877628	139.822738
08108	ＪＲ野田店	5530006	大阪府大阪市福島区吉野3-12-26	34.690262	135.473344
08110	なんばウォーク店	5420076	大阪府大阪市中央区難波1丁目なんばｳｫｰｸ3-12	34.666334	135.500164
08113	仙台駅前店	9800021	宮城県仙台市青葉区中央3-1-3	38.259906	140.878845
08114	パレット久茂地店	9000015	沖縄県那覇市久茂地1-1-1	26.2152	127.680165
08115	新小岩南口店	1240024	東京都葛飾区新小岩1-44-2	35.716601	139.862823
08119	イオンモール松本店	3908560	長野県松本市中央4-9-51風庭3Fﾌｰﾄﾞｺｰﾄ	36.24245	137.97554
08120	ニトリモール枚方店	5730171	大阪府枚方市北山1丁目2-1	34.841912	135.70149
08123	ＪＲ王寺店	6360003	奈良県北葛城郡王寺町久度2-3538-1	34.598346	135.70124
08124	長居店	5580004	大阪府大阪市住吉区長居東4-2-10	34.607471	135.517014
08125	渋谷円山町店	1500044	東京都渋谷区円山町28-4大場ﾋﾞﾙA館1A	35.657514	139.694603
08126	川越山田店	3500822	埼玉県川越市山田1733-1	35.943398	139.478087
08127	フレスポ函館戸倉店	0420953	北海道函館市戸倉町320-1	41.78308	140.804049
08128	雑色駅前店	1440055	東京都大田区仲六郷2丁目43-10	35.547701	139.712032
08131	大森北店	1430016	東京都大田区大森北1-30-1	35.583057	139.730184
08133	成城学園前店	1570066	東京都世田谷区成城2-40-1成城第一ﾋﾞﾙ1階	35.642824	139.596734
08135	本厚木北口店	2430018	神奈川県厚木市中町2-6-5	35.440341	139.363991
08142	イオンモール京都五条店	6150035	京都府京都市右京区西院追分町25-1	34.998069	135.726303
08144	神戸学園都市店	6512103	兵庫県神戸市西区学園西町1-4	34.682499	135.053444
08149	明石大久保インター店	6740051	兵庫県明石市大久保町大窪2677-1	34.689773	134.947065
08150	戸越公園駅前店	1420041	東京都品川区戸越5-18-7	35.611762	139.71813
08151	十和田東一番町店	0340012	青森県十和田市東一番町4-10	40.622115	141.215372
08152	ＪＲ高槻駅南店	5690804	大阪府高槻市紺屋町7-12寺本ﾋﾞﾙ1F	34.849195	135.618574
08154	イオンモール鶴見緑地店	5380053	大阪府大阪市鶴見区鶴見4-17-1	34.702734	135.563874
08155	京阪枚方市駅店	5730032	大阪府枚方市岡東町19-14	34.816433	135.650599
08156	大濠公園前店	8100062	福岡県福岡市中央区荒戸2-1-18ｱｽｴﾘｱ大濠公園1階	33.592302	130.375812
08160	さいたま三橋店	3300856	埼玉県さいたま市大宮区三橋1-1028-1	35.899828	139.603454
08161	緑一丁目店	5380054	大阪府大阪市鶴見区緑一丁目19-2	34.712573	135.564177
08162	南森町店	5300047	大阪府大阪市北区西天満5-1-3	34.696683	135.505295
08164	川口新井町店	3320005	埼玉県川口市新井町16-12	35.802438	139.741368
08167	イオンモール東久留米店	2030023	東京都東久留米市南沢五丁目17-62	35.749905	139.529601
08168	京王高幡ＳＣ店	1910031	東京都日野市高幡128-5京王高幡ｼｮｯﾋﾟﾝｸﾞｾﾝﾀｰ1階	35.662297	139.412647
08170	エミオ練馬高野台店	1770033	東京都練馬区高野台1-7-27ｴﾐｵ練馬高野台1階	35.746584	139.615774
08171	宇治半白店	6110021	京都府宇治市宇治半白59-1	34.889907	135.799347
08172	綾瀬店	1200005	東京都足立区綾瀬3-1-16	35.765429	139.825465
08173	アトレ品川店	1080075	東京都港区港南2-18-1	35.62943	139.748599
08174	神戸元町店	6500022	兵庫県神戸市中央区元町通1-13-15	34.686347	135.183809
08175	フォレスタ六甲店	6570027	兵庫県神戸市灘区永手町4-2-1	34.716149	135.23938
08176	岩見沢店	0680030	北海道岩見沢市十条西1-5-1	43.191648	141.760928
08178	アリオ西新井店	1230843	東京都足立区西新井栄町1-20-1ｱﾘｵ西新井1階	35.775986	139.786779
08179	京橋店	5340024	大阪府大阪市都島区東野田町2-9-11	34.69843	135.532015
08180	ＪＲ広島駅店	7320822	広島県広島市南区松原町2-37JR広島駅在来改札内ｱﾝﾄﾚﾏﾙｼｪ広島内	34.396388	132.473655
08181	ラソラ札幌店	0030004	北海道札幌市白石区東札幌4条1丁目1-1ﾗｿﾗ札幌Bﾀｳﾝ1階	43.05092	141.390847
08182	西友清瀬店	2040021	東京都清瀬市元町1-4-5	35.774995	139.516446
08184	横浜天王町店	2400003	神奈川県横浜市保土ヶ谷区天王町二丁目46-1ヴｨﾗﾃﾞｽﾃKOSUGE1階	35.45621	139.602022
08185	旗の台店	1420064	東京都品川区旗の台2-1-22	35.605452	139.702838
08187	柏豊四季店	2770863	千葉県柏市豊四季1007-8	35.866205	139.946782
08188	太秦天神川店	6168084	京都府京都市右京区太秦安井一町田町14番地	35.01277	135.717639
08189	南林間西口店	2420006	神奈川県大和市南林間1-8-2南林間西口第2ﾋﾞﾙ1階	35.494912	139.441485
08193	所沢西口店	3591123	埼玉県所沢市日吉町12-1	35.787702	139.469482
08194	瀬谷駅店	2460031	神奈川県横浜市瀬谷区瀬谷4-1-1	35.468372	139.483972
08195	大泉学園ゆめりあ店	1780063	東京都練馬区東大泉5-43-1大泉学園ゆめりあﾌｪﾝﾃ2F201A区画	35.74911	139.587312
08196	新江古田店	1760012	東京都練馬区豊玉北1-3-24ｿﾚｲﾕ江古田1階	35.734344	139.660148
08197	ＪＲ神戸店	6500025	兵庫県神戸市中央区相生町3-1-2	34.679521	135.177989
08198	エスコンフィールドＨＯＫＫＡＩＤＯ店	0611116	北海道北広島市Fﾋﾞﾚｯｼﾞ1番地	42.9900025	141.54982
08200	麗澤大学前店	2770062	千葉県柏市光ｹ丘団地1-1	35.82823	139.958991
08201	京都北山駅前店	6060833	京都府京都市左京区下鴨前萩町5-7GATODM北山	35.050461	135.767901
08202	トナリエ大和高田店	6350015	奈良県大和高田市幸町3-182F251	34.518123	135.746098
08203	平和島駅前店	1430016	東京都大田区大森北6-27-3伊東ﾋﾞﾙ1階	35.583057	139.730184
08204	ウィングキッチン京急鶴見店	2300051	神奈川県横浜市鶴見区鶴見中央1-30-22ｳｨﾝｸﾞｷｯﾁﾝ京急鶴見1F201	35.508415	139.680155
08205	久我山店	1680082	東京都杉並区久我山5-8-17関口ﾋﾞﾙ1階	35.686855	139.599614
08206	シャポー小岩店	1330056	東京都江戸川区南小岩7-24-15ｼｬﾎﾟｰ小岩1階1-11号	35.725385	139.884271
08207	四条西洞院店	6008493	京都府京都市下京区四条通西洞院東入郭巨山町6	35.003875	135.755745
08208	唐津店	8470821	佐賀県唐津市町田1011番	33.441132	129.96896
08209	京急杉田店	2350033	神奈川県横浜市磯子区杉田1-14-9	35.377985	139.616926
08210	パオレ南大沢店	1920364	東京都八王子市南大沢2-2ﾊﾟｵﾚﾋﾞﾙ4階	35.610403	139.379644
08211	イオン市川妙典店	2720111	千葉県市川市妙典5-3-1	35.693949	139.928724
08212	奈良学園前店	6310034	奈良県奈良市学園南3-1-5奈良西部会館1階102	34.693562	135.752241
08213	相模原ラクーン店	2520205	神奈川県相模原市中央区小山1-1-14	35.58469	139.361434
08215	名古屋伏見店	4600008	愛知県名古屋市中区栄1-5-8	35.166558	136.905118
08216	三田本町店	6691526	兵庫県三田市相生町11-12	34.882886	135.227772
08218	フォレオ大津一里山店	5202153	滋賀県大津市一里山7-1-1	34.979701	135.933153
08219	箕面牧落店	5620004	大阪府箕面市牧落3-14-39	34.822273	135.47186
08220	ブランチ横浜南部市場店	2360002	神奈川県横浜市金沢区鳥浜町1-1	35.384636	139.644022
08221	ひばりヶ丘北口店	2020002	東京都西東京市ひばりが丘北3-3-23BMﾋﾞﾙ1階	35.752274	139.547922
08222	キテラプラザ青葉台店	2270062	神奈川県横浜市青葉区青葉台2-2-2	35.545986	139.516522
08223	桜台千川通り店	1760002	東京都練馬区桜台1-4-11ﾗｲｵﾝｽﾞﾏﾝｼｮﾝ桜台駅前101号室	35.743643	139.661913
08224	テラスウォーク一宮店	4910022	愛知県一宮市両郷町1-2	35.313034	136.819108
08225	仙台長町店	9820011	宮城県仙台市太白区長町6-5-38	38.22925	140.883112
08227	市川大野店	2720804	千葉県市川市南大野1-47-5	35.745772	139.952961
08228	皿倉テラス店	8050062	福岡県北九州市八幡東区平野3-2-58	33.861709	130.791915
08230	神戸大開店	6520802	兵庫県神戸市兵庫区水木通7-1-10	34.673086	135.163632
08233	越谷レイクタウン店	3430828	埼玉県越谷市ﾚｲｸﾀｳﾝ7-16-4	35.877628	139.822738
08235	イズミヤ神戸玉津店	6512132	兵庫県神戸市西区森友3-7-3	34.665245	134.982536
08236	ガーデンズ千早東店	8130044	福岡県福岡市東区千早3-6-36	33.651497	130.435877
08237	西神プレンティ店	6512273	兵庫県神戸市西区糀台5-2-3	34.71798	135.022674
08238	生駒上町店	6300131	奈良県生駒市上町1-1	34.716571	135.723254
08240	黒川駅前店	4620842	愛知県名古屋市北区志賀南通1-20-1	35.197365	136.912291
08241	鶴瀬駅東口店	3540024	埼玉県富士見市鶴瀬東1丁目2520-4	35.84844	139.539379
08243	二俣川ジョイナステラス３店	2410821	神奈川県横浜市旭区二俣川1-3-2ｼﾞｮｲﾅｽﾃﾗｽ34階	35.463478	139.531416
08244	小田急マルシェ百合ヶ丘店	2150011	神奈川県川崎市麻生区百合丘1-21-1	35.604362	139.517185
08245	国道１７号北本店	3640004	埼玉県北本市山中1-60	36.033254	139.546607
08247	光が丘ＩＭＡ店	1790072	東京都練馬区光が丘5-1-1ｲﾏﾐｾ4階IMADINING	35.761758	139.629419
08248	西長堀店	5500014	大阪府大阪市西区北堀江3-9-1	34.674127	135.490335
08249	イオンモール札幌苗穂店	0070802	北海道札幌市東区東苗穂二条3-1-1	43.081859	141.401738
08250	稲毛海岸店	2610004	千葉県千葉市美浜区高洲3-23-1ﾍﾟﾘｴﾒﾃﾞｨｶﾙﾋﾞﾙ美浜1F	35.627395	140.076959
08252	三ノ宮駅東店	6510096	兵庫県神戸市中央区雲井通4-2-14	34.695521	135.198017
08253	ミスターマックス新習志野店	2750024	千葉県習志野市茜浜2丁目2-1ﾐｽﾀｰﾏｯｸｽ1F	35.665419	140.006201
08254	ＢＬＡＮＤＥ三郷店	3410024	埼玉県三郷市三郷1丁目3-1BLANDE三郷	35.844376	139.883301
08255	マーヴ浦安店	2790002	千葉県浦安市北栄1-12-13	35.665569	139.89911
08256	ららぽーと堺店	5878577	大阪府堺市美原区黒山22-13F39021	34.5453	135.5539
08257	ｔｅｔｅ名谷店	6540154	兵庫県神戸市須磨区中落合2-3-12203区画	34.680883	135.095597
08258	イオンモール船橋店	2730045	千葉県船橋市山手1-1-8354区画	35.715133	139.976545
08259	プライムツリー赤池店	4700126	愛知県日進市赤池町箕ﾉ手13階	35.120635	137.015705
08261	ＮＡＭＢＡなんなん店	5420076	大阪府大阪市中央区難波5丁目なんなんﾀｳﾝ5号	34.666334	135.500164
08262	水戸駅南口店	3100015	茨城県水戸市宮町1-7-44COMBOX3階	36.372067	140.474605
08263	浅草橋駅前店	1110052	東京都台東区柳橋1-20-4Vort浅草橋駅前V1階	35.697771	139.7885
08264	イオンモール秋田店	0101413	秋田県秋田市御所野地蔵田1-1-1	39.660928	140.156173
08265	ヤオコー杉並桃井店	1670034	東京都杉並区桃井3-5-1ﾔｵｺｰ杉並桃井店2F	35.713253	139.607914
08266	元住吉ブレーメン通り店	2110025	神奈川県川崎市中原区木月1-29-23ｸﾗｳﾝﾋﾞﾙ1階	35.562812	139.653424
08267	八潮店	3400808	埼玉県八潮市緑町4-12-1	35.825262	139.829818
08268	松戸六高台店	2702203	千葉県松戸市六高台8-49	35.799124	139.987897
08269	そよら飯田アップルロード店	3950805	長野県飯田市鼎一色456	35.501692	137.813547
08270	茨木鮎川店	5670831	大阪府茨木市鮎川4-149-1	34.817693	135.595253
08271	江別野幌店	0690814	北海道江別市野幌松並町38-1	43.087251	141.518423
08272	イオン相模原店	2520344	神奈川県相模原市南区古淵2-10-1ｲｵﾝ相模原ｼｮｯﾋﾟﾝｸﾞｾﾝﾀｰ3階	35.554147	139.420674
08273	奈良押熊店	6310011	奈良県奈良市押熊町779	34.720884	135.767476
08274	ヴィータモールせいせき店	2060011	東京都多摩市関戸4-72ヴｨｰﾀ聖蹟桜ヶ丘2階230区画	35.647593	139.450767
08275	石巻あけぼの店	9860862	宮城県石巻市あけぼの2-4-2	38.451765	141.273582
08277	イオンモール長久手店	4801128	愛知県長久手市勝入塚501	35.172127	137.049253
08278	ピオレ明石店	6730891	兵庫県明石市大明石町1-1-23東館2階	34.648172	134.991459
08279	桑園駅前店	0600010	北海道札幌市中央区北10条14-1ｿｳｴﾝBRIDGE	43.069748	141.324963
08280	京阪古川橋店	5710066	大阪府門真市幸福町3-1ｺｱ古川橋東館	34.741995	135.590329
08282	イオンモール堺鉄砲町店	5900905	大阪府堺市堺区鉄砲町1	34.594923	135.480719
08283	お花茶屋駅前店	1240003	東京都葛飾区お花茶屋1-18-13	35.751999	139.840258
09903	Ｐ４テストＩＳＩＤ＃３	1416004	東京都品川区大崎2-1-1ThinkParkTower4階	35.618461	139.7276249